date,jj,mm,aa,salle,anecdote,id_ligne,format_date,aaaa,date_ok,type_concert,id_concert,name,country.name.fr,continent,zone,lat,lon
16/04/60,16,4,60,L'Escale,,1,OK,1960,1960-04-16,Concert,1,Migennes,France,Europe,France,47.9676424,3.5219254
17/04/60,17,4,60,L'Escale,"Matinée 
                en 1ère partie de Jean Constantin",2,OK,1960,1960-04-17,Concert,2,Migennes,France,Europe,France,47.9676424,3.5219254
22/05/60,22,5,60,Foire exposition,"1ère partie de 
                      
                Sacha Distel",4,OK,1960,1960-05-22,Concert,3,Périgueux,France,Europe,France,45.1909365,0.7184407
03/09/60,3,9,60,L'Escale,,12,OK,1960,1960-09-03,Concert,4,Migennes,France,Europe,France,47.9676424,3.5219254
04/09/60,4,9,60,L'Escale,Matinée,13,OK,1960,1960-09-04,Concert,5,Migennes,France,Europe,France,47.9676424,3.5219254
05/11/60,5,11,60,,,16,OK,1960,1960-11-05,Concert,6,Orléans,France,Europe,France,47.9027336,1.9086066
11/11/60,11,11,60,Alcazar,,17,OK,1960,1960-11-11,Concert,7,Marseille,France,Europe,France,43.2961743,5.3699525
12/11/60,12,11,60,Alcazar,,18,OK,1960,1960-11-12,Concert,8,Marseille,France,Europe,France,43.2961743,5.3699525
13/11/60,13,11,60,Alcazar,Matinée,19,OK,1960,1960-11-13,Concert,9,Marseille,France,Europe,France,43.2961743,5.3699525
19/11/60,19,11,60,,,25,OK,1960,1960-11-19,Concert,10,Monte-Carlo,Monaco,Europe,Europe,43.7403,7.426559
09/12/60,9,12,60,Alcazar,,26,OK,1960,1960-12-09,Concert,11,Marseille,France,Europe,France,43.2961743,5.3699525
10/12/60,10,12,60,Alcazar,,27,OK,1960,1960-12-10,Concert,12,Marseille,France,Europe,France,43.2961743,5.3699525
11/12/60,11,12,60,Alcazar,,28,OK,1960,1960-12-11,Concert,13,Marseille,France,Europe,France,43.2961743,5.3699525
17/12/60,17,12,60,"Salle 
                Wagram",Nuit du Jazz,29,OK,1960,1960-12-17,Concert,14,Paris,France,Europe,France,48.8566101,2.3514992
14/01/61,14,1,61,Dancing La Cerisaie,,30,OK,1961,1961-01-14,Concert,15,Reims,France,Europe,France,49.2577886,4.031926
15/01/61,15,1,61,Dancing La Cerisaie,,31,OK,1961,1961-01-15,Concert,16,Reims,France,Europe,France,49.2577886,4.031926
25/01/61,25,1,61,Cinéma Eden,,32,OK,1961,1961-01-25,Concert,17,Châteaurenard,France,Europe,France,43.8820448,4.85568
15/02/61,15,2,61,Salle Communale,,37,OK,1961,1961-02-15,Concert,18,Nyon,Suisse,Europe,Europe,46.3820585,6.2402791
16/02/61,16,2,61,Le Bagatelle,,38,OK,1961,1961-02-16,Concert,19,Lausanne,Suisse,Europe,Europe,46.5218269,6.6327025
24/02/61,24,2,61,Palais des Sports,"Festival du 
          Rock' n' Roll",39,OK,1961,1961-02-24,Concert,20,Paris,France,Europe,France,48.8566101,2.3514992
01/03/61,1,3,61,Théâtre - Cirque,,41,OK,1961,1961-03-01,Concert,21,Rouen,France,Europe,France,49.4404591,1.0939658
21/03/61,21,3,61,Cinéma A.B.C.,,42,OK,1961,1961-03-21,Concert,22,Le Mans,France,Europe,France,48.0078605,0.1996565
02/04/61,2,4,61,Casino,Matinée,44,OK,1961,1961-04-02,Concert,23,Blankenberge,Belgique,Europe,Europe,51.3125734,3.1280675
10/04/61,10,4,61,,,46,OK,1961,1961-04-10,Concert,24,Lille,France,Europe,France,50.6305089,3.0706414
13/04/61,13,4,61,Cinéma Le Paris,,47,OK,1961,1961-04-13,Concert,25,Limoges,France,Europe,France,45.8354243,1.2644847
20/04/61,20,4,61,Cinéma Le Palace,,48,OK,1961,1961-04-20,Concert,26,Avignon,France,Europe,France,43.9493143,4.8060329
02/05/61,2,5,61,,,49,OK,1961,1961-05-02,Concert,27,Valence,France,Europe,France,44.9332277,4.8920811
09/05/61,9,5,61,Le Rio,,50,OK,1961,1961-05-09,Concert,28,Nancy,France,Europe,France,48.6937223,6.1834097
20/05/61,20,5,61,Les Arènes,,51,OK,1961,1961-05-20,Concert,29,Nîmes,France,Europe,France,43.8374249,4.3600687
21/05/61,21,5,61,L'Alcazar,,52,OK,1961,1961-05-21,Concert,30,Narbonne,France,Europe,France,43.182806,3.0043128
23/05/61,23,5,61,,,53,OK,1961,1961-05-23,Concert,31,Draguignan,France,Europe,France,43.5374662,6.4627333
24/05/61,24,5,61,,,54,OK,1961,1961-05-24,Concert,32,Castres,France,Europe,France,43.6036776,2.2417954
30/05/61,30,5,61,,,55,OK,1961,1961-05-30,Concert,33,Bastia,France,Europe,France,42.7065505,9.452542
03/06/61,3,6,61,,,56,OK,1961,1961-06-03,Concert,34,Nice,France,Europe,France,43.7009358,7.2683912
10/06/61,10,6,61,,"1er Festival des 
            Etoiles",57,OK,1961,1961-06-10,Concert,35,Pézenas,France,Europe,France,43.4611777,3.4228323
11/06/61,11,6,61,,,58,OK,1961,1961-06-11,Concert,36,Perpignan,France,Europe,France,42.6953868,2.8844713
15/06/61,15,6,61,Cinéma Les Fleurs,Avec Petula Clark,59,OK,1961,1961-06-15,Concert,37,Vichy,France,Europe,France,46.1239268,3.4203712
18/06/61,18,6,61,Les Arènes,,60,OK,1961,1961-06-18,Concert,38,Béziers,France,Europe,France,43.341279,3.2166203
19/06/61,19,6,61,Théatre,,61,OK,1961,1961-06-19,Concert,39,Carpentras,France,Europe,France,44.0554997,5.048752
20/06/61,20,6,61,,,62,OK,1961,1961-06-20,Concert,40,Grenoble,France,Europe,France,45.182151,5.7274722
22/06/61,22,6,61,,,63,OK,1961,1961-06-22,Concert,41,Rocheville,France,Europe,France,49.5041088,-1.5950075
23/06/61,23,6,61,,,64,OK,1961,1961-06-23,Concert,42,Toulon,France,Europe,France,43.1257311,5.9304919
24/06/61,24,6,61,,,65,OK,1961,1961-06-24,Concert,43,Beaucaire,France,Europe,France,43.8085436,4.6392648
25/06/61,25,6,61,,,66,OK,1961,1961-06-25,Concert,44,Courthézon,France,Europe,France,44.0867088,4.8835125
01/07/61,1,7,61,,,75,OK,1961,1961-07-01,Concert,45,Martigues,France,Europe,France,43.4057279,5.0548176
02/07/61,2,7,61,,Matinée,76,OK,1961,1961-07-02,Concert,46,Bourges,France,Europe,France,47.0805693,2.398932
02/07/61,2,7,61,,Soirée,77,OK,1961,1961-07-02,Concert,47,Saumur,France,Europe,France,47.2597046,-0.0778427
06/07/61,6,7,61,,,78,OK,1961,1961-07-06,Concert,48,Berre-l'Étang,France,Europe,France,43.4740673,5.1681405
07/07/61,7,7,61,Théatre de Verdure du Bosquet,,79,OK,1961,1961-07-07,Concert,49,Alès,France,Europe,France,44.1253665,4.0852818
08/07/61,8,7,61,Salle Fémina,,80,OK,1961,1961-07-08,Concert,50,Arles,France,Europe,France,43.6776223,4.6309653
09/07/61,9,7,61,,,81,OK,1961,1961-07-09,Concert,51,Cassis,France,Europe,France,43.2140359,5.5396318
13/07/61,13,7,61,,,82,OK,1961,1961-07-13,Concert,52,Ouistreham,France,Europe,France,49.2773562,-0.2579265
14/07/61,14,7,61,,,83,OK,1961,1961-07-14,Concert,53,Cherbourg,France,Europe,France,49.6397213,-1.6258285
15/07/61,15,7,61,,,84,OK,1961,1961-07-15,Concert,54,o2o Studio,France,Europe,France,48.6142641,-1.9789467
16/07/61,16,7,61,,,85,OK,1961,1961-07-16,Concert,55,Granville,France,Europe,France,48.8376284,-1.5959213
17/07/61,17,7,61,,,86,OK,1961,1961-07-17,Concert,56,Pléneuf-Val-André,France,Europe,France,48.5839267,-2.535957
18/07/61,18,7,61,,,87,OK,1961,1961-07-18,Concert,57,Lorient,France,Europe,France,47.7477336,-3.3660907
19/07/61,19,7,61,,,88,OK,1961,1961-07-19,Concert,58,La Baule-Escoublac,France,Europe,France,47.2843726,-2.3951595
20/07/61,20,7,61,,,89,OK,1961,1961-07-20,Concert,59,Royan,France,Europe,France,45.6245332,-1.0287636
21/07/61,21,7,61,,,90,OK,1961,1961-07-21,Concert,60,La Bourboule,France,Europe,France,45.5892481,2.7401614
23/07/61,23,7,61,,,91,OK,1961,1961-07-23,Concert,61,Cère,France,Europe,France,43.9912024,-0.5350767
24/07/61,24,7,61,,"Festival du 
          Rock' n' Roll",92,OK,1961,1961-07-24,Concert,62,Biarritz,France,Europe,France,43.4815899,-1.556116
25/07/61,25,7,61,,,93,OK,1961,1961-07-25,Concert,63,Saint-Jean-de-Luz,France,Europe,France,43.3870763,-1.6635695
26/07/61,26,7,61,,,94,OK,1961,1961-07-26,Concert,64,Bagnères-de-Luchon,France,Europe,France,42.7911837,0.5909427
27/07/61,27,7,61,Jardin Massey,,95,OK,1961,1961-07-27,Concert,65,Tarbes,France,Europe,France,43.232858,0.0781021
29/07/61,29,7,61,Théatre des étoiles Pharo,,96,OK,1961,1961-07-29,Concert,66,Marseille,France,Europe,France,43.2961743,5.3699525
01/08/61,1,8,61,,,103,OK,1961,1961-08-01,Concert,67,Cannes,France,Europe,France,43.5515198,7.0134418
02/08/61,2,8,61,,,104,OK,1961,1961-08-02,Concert,68,Bandol,France,Europe,France,43.1357717,5.7523648
03/08/61,3,8,61,,,105,OK,1961,1961-08-03,Concert,69,Le Grau-du-Roi,France,Europe,France,43.5361048,4.1360255
04/08/61,4,8,61,,,106,OK,1961,1961-08-04,Concert,70,Nice,France,Europe,France,43.7009358,7.2683912
05/08/61,5,8,61,,,107,OK,1961,1961-08-05,Concert,71,Grasse,France,Europe,France,43.6589011,6.9239103
08/08/61,8,8,61,,,108,OK,1961,1961-08-08,Concert,72,Châtelaillon-Plage,France,Europe,France,46.0738633,-1.0903991
09/08/61,9,8,61,,,109,OK,1961,1961-08-09,Concert,73,Les Sables-d'Olonne,France,Europe,France,46.4990505,-1.7767859
10/08/61,10,8,61,,,110,OK,1961,1961-08-10,Concert,74,Dinard,France,Europe,France,48.6251435,-2.0584211
11/08/61,11,8,61,,,111,OK,1961,1961-08-11,Concert,75,Trouville,France,Europe,France,49.5732368,0.6010584
13/08/61,13,8,61,Casino,,112,OK,1961,1961-08-13,Concert,76,Het Zoute,Belgique,Europe,Europe,51.352688,3.3087941
14/08/61,14,8,61,,,113,OK,1961,1961-08-14,Concert,77,Vittel,France,Europe,France,48.2018367,5.9492242
15/08/61,15,8,61,Hall des Expositions,Foire aux vins,114,OK,1961,1961-08-15,Concert,78,Colmar,France,Europe,France,48.0777517,7.3579641
17/08/61,17,8,61,,,115,OK,1961,1961-08-17,Concert,79,Annecy,France,Europe,France,45.908795,6.1198672
18/08/61,18,8,61,,,116,OK,1961,1961-08-18,Concert,80,Aix-les-Bains,France,Europe,France,45.6886292,5.9146362
19/08/61,19,8,61,,,117,OK,1961,1961-08-19,Concert,81,Roquevaire,France,Europe,France,43.3493655,5.6046608
21/08/61,21,8,61,Arènes portatives,,118,OK,1961,1961-08-21,Concert,82,Canaules-et-Argentières,France,Europe,France,43.9810036,4.0522466
23/08/61,23,8,61,,,119,OK,1961,1961-08-23,Concert,83,La Savie,France,Europe,France,44.9134044,1.067875
24/08/61,24,8,61,,,120,OK,1961,1961-08-24,Concert,84,Menton,France,Europe,France,43.7751405,7.4966252
25/08/61,25,8,61,,,121,OK,1961,1961-08-25,Concert,85,Nice,France,Europe,France,43.7009358,7.2683912
26/08/61,26,8,61,Arènes,,122,OK,1961,1961-08-26,Concert,86,Béziers,France,Europe,France,43.341279,3.2166203
27/08/61,27,8,61,Théatre de la Promenade,"Henri Genes 
          en 1ere partie",123,OK,1961,1961-08-27,Concert,87,Nay,France,Europe,France,43.1798743,-0.2621768
27/08/61,27,8,61,,Soirée,124,OK,1961,1961-08-27,Concert,88,Pamiers,France,Europe,France,43.1147515,1.6082177
29/08/61,29,8,61,Vieux Colombier,,125,OK,1961,1961-08-29,Concert,89,Juan Les Pins,France,Europe,France,43.5676357,7.1141716
31/08/61,31,8,61,,,126,OK,1961,1961-08-31,Concert,90,Cannes,France,Europe,France,43.5515198,7.0134418
15/10/61,15,10,61,Hall des Expositions,,130,OK,1961,1961-10-15,Concert,91,Mons,Belgique,Europe,Europe,50.4549568,3.951958
16/10/61,16,10,61,,,131,OK,1961,1961-10-16,Concert,92,Boulogne-sur-Mer,France,Europe,France,50.7259985,1.6118771
17/10/61,17,10,61,Ciné Music Hall,,132,OK,1961,1961-10-17,Concert,93,Mouscron,Belgique,Europe,Europe,50.7433351,3.2139093
18/10/61,18,10,61,"Palais des Sports 
à Schaarbeek",,133,OK,1961,1961-10-18,Concert,94,Bruxelles,Belgique,Europe,Europe,50.8465573,4.351697
19/10/61,19,10,61,Ciné Capitol,,134,OK,1961,1961-10-19,Concert,95,Gand,Belgique,Europe,Europe,51.052152,3.722545
20/10/61,20,10,61,Ciné Caméo,,135,OK,1961,1961-10-20,Concert,96,Namur,Belgique,Europe,Europe,50.4665284,4.8661892
21/10/61,21,10,61,Hall Louis,,136,OK,1961,1961-10-21,Concert,97,Arlon,Belgique,Europe,Europe,49.6827625,5.811919
22/10/61,22,10,61,Théâtre Communal,,137,OK,1961,1961-10-22,Concert,98,La Louvière,Belgique,Europe,Europe,50.479487,4.1852682
24/10/61,24,10,61,Ciné Théâtre,,138,OK,1961,1961-10-24,Concert,99,Châtelet,Belgique,Europe,Europe,50.4046075,4.5243511
25/10/61,25,10,61,Coliséum,,139,OK,1961,1961-10-25,Concert,100,Verviers,Belgique,Europe,Europe,50.5932274,5.8638544
26/10/61,26,10,61,Palace,,140,OK,1961,1961-10-26,Concert,101,Liège,Belgique,Europe,Europe,50.6451381,5.5734203
29/10/61,29,10,61,,Annulé,141,OK,1961,1961-10-29,Concert annulé,102,Immigration Office,Belgique,Europe,Europe,50.8620646,4.3566381
30/10/61,30,10,61,,,142,OK,1961,1961-10-30,Concert,103,Sedan,France,Europe,France,49.7033759,4.9433409
28/11/61,28,11,61,Le Ritz,,143,OK,1961,1961-11-28,Concert,104,Lille,France,Europe,France,50.6305089,3.0706414
02/12/61,2,12,61,Palace,,144,OK,1961,1961-12-02,Concert,105,Liège,Belgique,Europe,Europe,50.6451381,5.5734203
15/12/61,15,12,61,Le Paris,,145,OK,1961,1961-12-15,Concert,106,Clermont-Ferrand,France,Europe,France,45.7774551,3.0819427
16/12/61,16,12,61,Palais d'Hiver,,146,OK,1961,1961-12-16,Concert,107,Lyon,France,Europe,France,45.7578137,4.8320114
17/12/61,17,12,61,Palais d'Hiver,,147,OK,1961,1961-12-17,Concert,108,Lyon,France,Europe,France,45.7578137,4.8320114
18/12/61,18,12,61,,,148,OK,1961,1961-12-18,Concert,109,Valence,France,Europe,France,44.9332277,4.8920811
19/12/61,19,12,61,,,149,OK,1961,1961-12-19,Concert,110,Montélimar,France,Europe,France,44.5579391,4.750318
31/12/61,31,12,61,Palais de Savoie,,150,OK,1961,1961-12-31,Concert,111,Aix-les-Bains,France,Europe,France,45.6886292,5.9146362
08/03/62,8,3,62,Le France,"Concert pour des oeuvres de charité en présence 
                      
                de Jacqueline Kennedy",156,OK,1962,1962-03-08,Concert,112,New York,États-Unis d'Amérique,Amériques,Amériques,43.3478471,-76.0965895
10/03/62,10,3,62,,,157,OK,1962,1962-03-10,Concert,113,Flers,France,Europe,France,48.7466059,-0.5676373
12/03/62,12,3,62,,,158,OK,1962,1962-03-12,Concert,114,Laval,France,Europe,France,48.0710377,-0.7723499
13/03/62,13,3,62,,,159,OK,1962,1962-03-13,Concert,115,Cholet,France,Europe,France,47.0617293,-0.8801349
14/03/62,14,3,62,,,160,OK,1962,1962-03-14,Concert,116,Poitiers,France,Europe,France,46.5802596,0.340196
15/03/62,15,3,62,Cinéma Le Paris,,161,OK,1962,1962-03-15,Concert,117,Limoges,France,Europe,France,45.8354243,1.2644847
16/03/62,16,3,62,,,162,OK,1962,1962-03-16,Concert,118,Angoulême,France,Europe,France,45.6496755,0.1568658
17/03/62,17,3,62,,,163,OK,1962,1962-03-17,Concert,119,Montguyon,France,Europe,France,45.2161111,-0.1872222
18/03/62,18,3,62,,,164,OK,1962,1962-03-18,Concert,120,Saintes,France,Europe,France,45.7420801,-0.6299329
19/03/62,19,3,62,,,165,OK,1962,1962-03-19,Concert,121,Bordeaux,France,Europe,France,44.841225,-0.5800364
20/03/62,20,3,62,,,166,OK,1962,1962-03-20,Concert,122,Bergerac,France,Europe,France,44.8534568,0.487531
21/03/62,21,3,62,,,167,OK,1962,1962-03-21,Concert,123,Agen,France,Europe,France,44.2015624,0.6176324
22/03/62,22,3,62,,,168,OK,1962,1962-03-22,Concert,124,Montauban,France,Europe,France,44.0175835,1.3549991
23/03/62,23,3,62,,,169,OK,1962,1962-03-23,Concert,125,Rodez,France,Europe,France,44.3510012,2.5733006
24/03/62,24,3,62,,,170,OK,1962,1962-03-24,Concert,126,Albi,France,Europe,France,43.9277552,2.147899
25/03/62,25,3,62,,,171,OK,1962,1962-03-25,Concert,127,Albi,France,Europe,France,43.9277552,2.147899
26/03/62,26,3,62,,,172,OK,1962,1962-03-26,Concert,128,Toulouse,France,Europe,France,43.6044622,1.4442469
27/03/62,27,3,62,,,173,OK,1962,1962-03-27,Concert,129,Toulouse,France,Europe,France,43.6044622,1.4442469
28/03/62,28,3,62,,,174,OK,1962,1962-03-28,Concert,130,Brive,France,Europe,France,43.4677483,0.8566865
29/03/62,29,3,62,,,175,OK,1962,1962-03-29,Concert,131,Clermont-Ferrand,France,Europe,France,45.7774551,3.0819427
30/03/62,30,3,62,,,176,OK,1962,1962-03-30,Concert,132,Roanne,France,Europe,France,46.0363902,4.0738682
31/03/62,31,3,62,,,177,OK,1962,1962-03-31,Concert,133,Lyon,France,Europe,France,45.7578137,4.8320114
01/04/62,1,4,62,,,178,OK,1962,1962-04-01,Concert,134,Annonay,France,Europe,France,45.2399639,4.6675475
02/04/62,2,4,62,,,179,OK,1962,1962-04-02,Concert,135,Annecy,France,Europe,France,45.908795,6.1198672
03/04/62,3,4,62,,,180,OK,1962,1962-04-03,Concert,136,Genève,Suisse,Europe,Europe,48.965752,6.581146
04/04/62,4,4,62,Palais de Beaulieu,,181,OK,1962,1962-04-04,Concert,137,Lausanne,Suisse,Europe,Europe,46.5218269,6.6327025
05/04/62,5,4,62,Capitole,,182,OK,1962,1962-04-05,Concert,138,Bienne,Suisse,Europe,Europe,47.1420451,7.2585667
06/04/62,6,4,62,Cinéma Le Lux,,183,OK,1962,1962-04-06,Concert,139,Montbéliard,France,Europe,France,47.5102368,6.7977564
07/04/62,7,4,62,Salle des Fêtes,,184,OK,1962,1962-04-07,Concert,140,Vienne,France,Europe,France,45.5252114,4.8747841
08/04/62,8,4,62,Cinéma Omnia,,185,OK,1962,1962-04-08,Concert,141,Dole,France,Europe,France,47.0921047,5.4925463
09/04/62,9,4,62,Cinéma Le Palace,,186,OK,1962,1962-04-09,Concert,142,Nevers,France,Europe,France,46.9945997,3.1591285
13/04/62,13,4,62,,Matinée,187,OK,1962,1962-04-13,Concert,143,Tours,France,Europe,France,47.3900474,0.6889268
21/04/62,21,4,62,,,189,OK,1962,1962-04-21,Concert,144,Vichy,France,Europe,France,46.1239268,3.4203712
22/04/62,22,4,62,,,190,OK,1962,1962-04-22,Concert,145,Vichy,France,Europe,France,46.1239268,3.4203712
23/04/62,23,4,62,,,191,OK,1962,1962-04-23,Concert,146,Montluçon,France,Europe,France,46.3399276,2.6067229
24/04/62,24,4,62,Cinéma Le Royal,,192,OK,1962,1962-04-24,Concert,147,Orléans,France,Europe,France,47.9027336,1.9086066
25/04/62,25,4,62,,,193,OK,1962,1962-04-25,Concert,148,Fontainebleau,France,Europe,France,48.4049375,2.7015872
26/04/62,26,4,62,,,194,OK,1962,1962-04-26,Concert,149,Mantes-la-Jolie,France,Europe,France,48.9891971,1.7140683
28/04/62,28,4,62,,,195,OK,1962,1962-04-28,Concert,150,Yvetot,France,Europe,France,49.6179384,0.7538866
29/04/62,29,4,62,,,196,OK,1962,1962-04-29,Concert,151,Le Havre,France,Europe,France,49.4938975,0.1079732
30/04/62,30,4,62,,,197,OK,1962,1962-04-30,Concert,152,Lisieux,France,Europe,France,49.1460831,0.2255168
01/05/62,1,5,62,,,198,OK,1962,1962-05-01,Concert,153,Viré,France,Europe,France,46.4487033,4.8417318
08/05/62,8,5,62,"Cinéma 
                Omnia",,199,OK,1962,1962-05-08,Concert,154,Brest,France,Europe,France,48.3905283,-4.4860088
09/05/62,9,5,62,"Cinéma 
                Le Royal",,200,OK,1962,1962-05-09,Concert,155,Lorient,France,Europe,France,47.7477336,-3.3660907
10/05/62,10,5,62,"Cinéma 
                Le Royal",,201,OK,1962,1962-05-10,Concert,156,Rennes,France,Europe,France,48.1113387,-1.6800198
11/05/62,11,5,62,"Cinéma 
                Olympia",,202,OK,1962,1962-05-11,Concert,157,Tours,France,Europe,France,47.3900474,0.6889268
12/05/62,12,5,62,,"Gala de 
                l'Union Sportive",203,OK,1962,1962-05-12,Concert,158,Montceau-les-Mines,France,Europe,France,46.6740455,4.3631681
13/05/62,13,5,62,Casino,"Matinée 
                à 16h00",204,OK,1962,1962-05-13,Concert,159,Besançon,France,Europe,France,47.237953,6.0243246
14/05/62,14,5,62,"Cinéma 
                Lux",,206,OK,1962,1962-05-14,Concert,160,Montbéliard,France,Europe,France,47.5102368,6.7977564
15/05/62,15,5,62,"Cinéma 
                Le Royal",,207,OK,1962,1962-05-15,Concert,161,Épinal,France,Europe,France,48.1745653,6.449823
09/06/62,9,6,62,,,213,OK,1962,1962-06-09,Concert,162,Auxerre,France,Europe,France,47.7954001,3.58452
10/06/62,10,6,62,,,214,OK,1962,1962-06-10,Concert,163,Montmarault,France,Europe,France,46.3185636,2.9544319
11/06/62,11,6,62,,,215,OK,1962,1962-06-11,Concert,164,Saint-Satur,France,Europe,France,47.3390546,2.8540497
14/06/62,14,6,62,Arènes,,216,OK,1962,1962-06-14,Concert,165,Casablanca,Maroc,Afrique,Afrique,33.5950627,-7.6187768
16/06/62,16,6,62,,,217,OK,1962,1962-06-16,Concert,166,Hautmont,France,Europe,France,50.2513704,3.9200611
17/06/62,17,6,62,,,218,OK,1962,1962-06-17,Concert,167,Mamers,France,Europe,France,48.3547,0.371483
20/06/62,20,6,62,,,219,OK,1962,1962-06-20,Concert,168,Royat,France,Europe,France,45.7643631,3.0477919
23/06/62,23,6,62,,,220,OK,1962,1962-06-23,Concert,169,Tournus,France,Europe,France,46.5636138,4.9104079
30/06/62,30,6,62,,,221,OK,1962,1962-06-30,Concert,170,Romilly-sur-Seine,France,Europe,France,48.5203,3.71823
01/07/62,1,7,62,,,222,OK,1962,1962-07-01,Concert,171,Montoire-sur-le-Loir,France,Europe,France,47.7527662,0.8621777
07/07/62,7,7,62,,,223,OK,1962,1962-07-07,Concert,172,Revel,France,Europe,France,43.4582102,2.005589
08/07/62,8,7,62,Les Sablettes,,224,OK,1962,1962-07-08,Concert,173,La Seyne-sur-Mer,France,Europe,France,43.1007714,5.8788948
09/07/62,9,7,62,,,225,OK,1962,1962-07-09,Concert,174,Ajaccio,France,Europe,France,41.9263991,8.7376029
10/07/62,10,7,62,,,226,OK,1962,1962-07-10,Concert,175,Bastia,France,Europe,France,42.7065505,9.452542
11/07/62,11,7,62,Gymnase,,227,OK,1962,1962-07-11,Concert,176,La Grand-Combe,France,Europe,France,44.2102417,4.0294228
12/07/62,12,7,62,Théâtre du Pharo,,228,OK,1962,1962-07-12,Concert,177,Marseille,France,Europe,France,43.2961743,5.3699525
13/07/62,13,7,62,Arènes,,229,OK,1962,1962-07-13,Concert,178,Lunel,France,Europe,France,43.6745265,4.1348062
14/07/62,14,7,62,Théâtre de Verdure,,230,OK,1962,1962-07-14,Concert,179,Oraison,France,Europe,France,43.9166157,5.919898
15/07/62,15,7,62,"Palais de la 
                Méditerranée",,231,OK,1962,1962-07-15,Concert,180,Nice,France,Europe,France,43.7009358,7.2683912
16/07/62,16,7,62,"Théâtre de verdure 
                du Casino",,232,OK,1962,1962-07-16,Concert,181,Saint-Raphaël,France,Europe,France,43.4255303,6.7694244
17/07/62,17,7,62,"Cinéma-Théâtre 
                Rex",,233,OK,1962,1962-07-17,Concert,182,Aix-en-Provence,France,Europe,France,43.5298424,5.4474738
18/07/62,18,7,62,Théâtre de Verdure,,234,OK,1962,1962-07-18,Concert,183,Dieulefit,France,Europe,France,44.5236962,5.0663637
19/07/62,19,7,62,Casino,,235,OK,1962,1962-07-19,Concert,184,Divonne-les-Bains,France,Europe,France,46.3553934,6.1426587
20/07/62,20,7,62,Casino,,236,OK,1962,1962-07-20,Concert,185,Plombières-lès-Dijon,France,Europe,France,47.3396438,4.9721576
21/07/62,21,7,62,Casino Kursaal,,237,OK,1962,1962-07-21,Concert,186,Ostende,Belgique,Europe,Europe,51.224172,2.921106
22/07/62,22,7,62,Casino,,238,OK,1962,1962-07-22,Concert,187,Trouville,France,Europe,France,49.5732368,0.6010584
23/07/62,23,7,62,Casino,,239,OK,1962,1962-07-23,Concert,188,o2o Studio,France,Europe,France,48.6142641,-1.9789467
25/07/62,25,7,62,,,240,OK,1962,1962-07-25,Concert,189,Arcachon,France,Europe,France,44.6539428,-1.1755714
26/07/62,26,7,62,,,241,OK,1962,1962-07-26,Concert,190,Sainte-Foy-la-Grande,France,Europe,France,44.8416496,0.214969
27/07/62,27,7,62,,,242,OK,1962,1962-07-27,Concert,191,Biarritz,France,Europe,France,43.4815899,-1.556116
29/07/62,29,7,62,,,243,OK,1962,1962-07-29,Concert,192,L'Isle-Jourdain,France,Europe,France,43.6144444,1.0816667
30/07/62,30,7,62,,,244,OK,1962,1962-07-30,Concert,193,Orthez,France,Europe,France,43.4874963,-0.7738363
01/08/62,1,8,62,,,245,OK,1962,1962-08-01,Concert,194,Draguignan,France,Europe,France,43.5374662,6.4627333
02/08/62,2,8,62,Théatre de Verdure,"Festival International de Jazz avec Ray Charles 
              et Count Basie",246,OK,1962,1962-08-02,Concert,195,La Baule-Escoublac,France,Europe,France,47.2843726,-2.3951595
03/08/62,3,8,62,,,247,OK,1962,1962-08-03,Concert,196,Nice,France,Europe,France,43.7009358,7.2683912
04/08/62,4,8,62,Les Arènes,,248,OK,1962,1962-08-04,Concert,197,Nîmes,France,Europe,France,43.8374249,4.3600687
05/08/62,5,8,62,,,249,OK,1962,1962-08-05,Concert,198,Sète,France,Europe,France,43.4017377,3.6941845
06/08/62,6,8,62,,,250,OK,1962,1962-08-06,Concert,199,Bédarieux,France,Europe,France,43.6155109,3.1576143
07/08/62,7,8,62,,,251,OK,1962,1962-08-07,Concert,200,Perpignan,France,Europe,France,42.6953868,2.8844713
08/08/62,8,8,62,,,252,OK,1962,1962-08-08,Concert,201,Le Cap-Ferret,France,Europe,France,44.6308885,-1.249812
11/08/62,11,8,62,,,253,OK,1962,1962-08-11,Concert,202,Saint-Gaudens,France,Europe,France,43.10777,0.7247218
12/08/62,12,8,62,Les Arènes,,254,OK,1962,1962-08-12,Concert,203,Béziers,France,Europe,France,43.341279,3.2166203
14/08/62,14,8,62,Théatre de Verdure,,255,OK,1962,1962-08-14,Concert,204,Gardanne,France,Europe,France,43.4547814,5.4692947
15/08/62,15,8,62,Théatre de Verdure,,256,OK,1962,1962-08-15,Concert,205,Cavaillon,France,Europe,France,43.8322775,5.0393165
16/08/62,16,8,62,Casino,,257,OK,1962,1962-08-16,Concert,206,Évian-les-Bains,France,Europe,France,46.400979,6.5897931
17/08/62,17,8,62,Casino,,258,OK,1962,1962-08-17,Concert,207,Montreux,Suisse,Europe,Europe,46.4310831,6.9129921
18/08/62,18,8,62,Casino,,259,OK,1962,1962-08-18,Concert,208,Aix-les-Bains,France,Europe,France,45.6886292,5.9146362
19/08/62,19,8,62,Théatre de Verdure,,260,OK,1962,1962-08-19,Concert,209,Brignoles,France,Europe,France,43.4064401,6.0616452
20/08/62,20,8,62,Les Arènes,,261,OK,1962,1962-08-20,Concert,210,Maison-Maugis,France,Europe,France,48.4531738,0.7033153
21/08/62,21,8,62,Casino,,262,OK,1962,1962-08-21,Concert,211,Quiberon,France,Europe,France,47.4874,-3.12152
23/08/62,23,8,62,Grand Casino,,263,OK,1962,1962-08-23,Concert,212,Les Sables-d'Olonne,France,Europe,France,46.4990505,-1.7767859
24/08/62,24,8,62,Casino,,264,OK,1962,1962-08-24,Concert,213,Bagnères-de-Luchon,France,Europe,France,42.7911837,0.5909427
25/08/62,25,8,62,Casino,,265,OK,1962,1962-08-25,Concert,214,Royan,France,Europe,France,45.6245332,-1.0287636
26/08/62,26,8,62,Théatre de Verdure,,266,OK,1962,1962-08-26,Concert,215,Blasimon,France,Europe,France,44.7503827,-0.0732551
27/08/62,27,8,62,Casino Miami,,267,OK,1962,1962-08-27,Concert,216,Andernos-les-Bains,France,Europe,France,44.7476897,-1.0925184
28/08/62,28,8,62,Chapiteau,,268,OK,1962,1962-08-28,Concert,217,Pamiers,France,Europe,France,43.1147515,1.6082177
29/08/62,29,8,62,Casino,,269,OK,1962,1962-08-29,Concert,218,Saint-Jean-de-Luz,France,Europe,France,43.3870763,-1.6635695
30/08/62,30,8,62,Théatre de Verdure,,270,OK,1962,1962-08-30,Concert,219,Bergerac,France,Europe,France,44.8534568,0.487531
14/09/62,14,9,62,,,271,OK,1962,1962-09-14,Concert,220,Le Cannet,France,Europe,France,43.5761076,7.0191865
15/09/62,15,9,62,Théatre Romain,Première partie : Los Machucambos,272,OK,1962,1962-09-15,Concert,221,Vienne,France,Europe,France,45.5252114,4.8747841
23/09/62,23,9,62,,,273,OK,1962,1962-09-23,Concert,222,Aurillac,France,Europe,France,44.9285441,2.4433101
07/12/62,7,12,62,Le Plaza,,278,OK,1962,1962-12-07,Concert,223,Toulouse,France,Europe,France,43.6044622,1.4442469
08/12/62,8,12,62,Cinéma Le Paris,,279,OK,1962,1962-12-08,Concert,224,Limoges,France,Europe,France,45.8354243,1.2644847
09/12/62,9,12,62,,,280,OK,1962,1962-12-09,Concert,225,Poitiers,France,Europe,France,46.5802596,0.340196
10/12/62,10,12,62,,,281,OK,1962,1962-12-10,Concert,226,Angoulême,France,Europe,France,45.6496755,0.1568658
11/12/62,11,12,62,,,282,OK,1962,1962-12-11,Concert,227,Bordeaux,France,Europe,France,44.841225,-0.5800364
12/12/62,12,12,62,,,283,OK,1962,1962-12-12,Concert,228,Bordeaux,France,Europe,France,44.841225,-0.5800364
13/12/62,13,12,62,"Olympia pour l'Arbre de Noël 
              de l'Elysée","En présence du 
  Général De Gaulle",284,OK,1962,1962-12-13,Concert,229,Paris,France,Europe,France,48.8566101,2.3514992
21/12/62,21,12,62,,,285,OK,1962,1962-12-21,Concert,230,Beausoleil,France,Europe,France,43.748281,7.4219677
27/12/62,27,12,62,,,287,OK,1962,1962-12-27,Concert,231,Avignon,France,Europe,France,43.9493143,4.8060329
28/12/62,28,12,62,Théâtre des Célestins,,288,OK,1962,1962-12-28,Concert,232,Lyon,France,Europe,France,45.7578137,4.8320114
01/01/63,1,1,63,Le Palace,,291,OK,1963,1963-01-01,Concert,233,Gstaad,Suisse,Europe,Europe,46.4740433,7.2857944
10/01/63,10,1,63,Casino,Spectacle interrompu après 3 chansons et suite de la tournée interdite par le gouvernement,292,OK,1963,1963-01-10,Concert à problèmes,234,Beyrouth,Liban,Asie,Asie,33.8959203,35.47843
15/02/63,15,2,63,Salle de la Réformation,"Claude Nougaro, 
Sylvie Vartan",293,OK,1963,1963-02-15,Concert,235,Genève,Suisse,Europe,Europe,48.965752,6.581146
16/02/63,16,2,63,Salle de la Réformation,"Claude Nougaro, 
    Sylvie Vartan",294,OK,1963,1963-02-16,Concert,236,Genève,Suisse,Europe,Europe,48.965752,6.581146
17/02/63,17,2,63,,"Claude Nougaro, 
    Sylvie Vartan",295,OK,1963,1963-02-17,Concert,237,Chamonix-Mont-Blanc,France,Europe,France,45.9246705,6.8727506
19/02/63,19,2,63,Théatre de Beaulieu,"Claude Nougaro, 
Sylvie Vartan",296,OK,1963,1963-02-19,Concert,238,Lausanne,Suisse,Europe,Europe,46.5218269,6.6327025
20/02/63,20,2,63,,"Claude Nougaro, 
              Sylvie Vartan
              Retransmis par EUROPE n°1 dans Musicorama",297,OK,1963,1963-02-20,Concert,239,Zurich,Suisse,Europe,Europe,47.3723957,8.5423216
21/02/63,21,2,63,,,298,OK,1963,1963-02-21,Concert,240,Montbéliard,France,Europe,France,47.5102368,6.7977564
22/02/63,22,2,63,Salle des fêtes,Matinée,299,OK,1963,1963-02-22,Concert,241,Roanne,France,Europe,France,46.0363902,4.0738682
22/02/63,22,2,63,,Soirée,300,OK,1963,1963-02-22,Concert,242,Le Creusot,France,Europe,France,46.808203,4.4297028
23/02/63,23,2,63,Théâtre Municipal,,301,OK,1963,1963-02-23,Concert,243,Grenoble,France,Europe,France,45.182151,5.7274722
24/02/63,24,2,63,Théâtre Municipal,,302,OK,1963,1963-02-24,Concert,244,Grenoble,France,Europe,France,45.182151,5.7274722
25/02/63,25,2,63,Alhambra,,303,OK,1963,1963-02-25,Concert,245,Saint-Romans,France,Europe,France,45.1127,5.32627
26/02/63,26,2,63,Théâtre Municipal,,304,OK,1963,1963-02-26,Concert,246,Tarare,France,Europe,France,45.8942555,4.4371374
27/02/63,27,2,63,Théâtre Municipal,,305,OK,1963,1963-02-27,Concert,247,Chambéry,France,Europe,France,45.5662672,5.9203636
28/02/63,28,2,63,Théâtre Municipal,,306,OK,1963,1963-02-28,Concert,248,Annecy,France,Europe,France,45.908795,6.1198672
01/03/63,1,3,63,,,307,OK,1963,1963-03-01,Concert,249,Vierzon,France,Europe,France,47.2217489,2.0691421
02/03/63,2,3,63,Salle des fêtes,,308,OK,1963,1963-03-02,Concert,250,Niort,France,Europe,France,46.3239455,-0.4645212
03/03/63,3,3,63,Théâtre Municipal,,309,OK,1963,1963-03-03,Concert,251,Châteauroux,France,Europe,France,46.8047,1.6957099
04/03/63,4,3,63,Théâtre Municipal,,310,OK,1963,1963-03-04,Concert,252,Angers,France,Europe,France,47.4739884,-0.5515588
05/03/63,5,3,63,Théâtre Municipal,,311,OK,1963,1963-03-05,Concert,253,Le Mans,France,Europe,France,48.0078605,0.1996565
06/03/63,6,3,63,Théâtre Municipal,,312,OK,1963,1963-03-06,Concert,254,La Rochelle,France,Europe,France,46.1591126,-1.1520434
07/03/63,7,3,63,,,313,OK,1963,1963-03-07,Concert,255,Saintes,France,Europe,France,45.7420801,-0.6299329
08/03/63,8,3,63,,,314,OK,1963,1963-03-08,Concert,256,Périgueux,France,Europe,France,45.1909365,0.7184407
09/03/63,9,3,63,,,315,OK,1963,1963-03-09,Concert,257,Brive,France,Europe,France,43.4677483,0.8566865
10/03/63,10,3,63,,,316,OK,1963,1963-03-10,Concert,258,Decazeville,France,Europe,France,44.5585148,2.2542071
11/03/63,11,3,63,,,317,OK,1963,1963-03-11,Concert,259,Carcassonne,France,Europe,France,43.2130358,2.3491069
12/03/63,12,3,63,,,318,OK,1963,1963-03-12,Concert,260,Perpignan,France,Europe,France,42.6953868,2.8844713
13/03/63,13,3,63,,,319,OK,1963,1963-03-13,Concert,261,Valence,France,Europe,France,44.9332277,4.8920811
14/03/63,14,3,63,,,320,OK,1963,1963-03-14,Concert,262,Valence,France,Europe,France,44.9332277,4.8920811
16/03/63,16,3,63,,,321,OK,1963,1963-03-16,Concert,263,Cannes,France,Europe,France,43.5515198,7.0134418
17/03/63,17,3,63,,,322,OK,1963,1963-03-17,Concert,264,Le Perthuis,France,Europe,France,48.5609999,-0.7749202
18/03/63,18,3,63,Théatre,,323,OK,1963,1963-03-18,Concert,265,Montpellier,France,Europe,France,43.6112422,3.8767337
21/03/63,21,3,63,,,324,OK,1963,1963-03-21,Concert,266,Tournon,France,Europe,France,45.6439,6.31756
20/03/63,20,3,63,,,325,OK,1963,1963-03-20,Concert,267,Clermont-Ferrand,France,Europe,France,45.7774551,3.0819427
21/03/63,21,3,63,,,326,OK,1963,1963-03-21,Concert,268,Nevers,France,Europe,France,46.9945997,3.1591285
22/03/63,22,3,63,Grand Théatre,,327,OK,1963,1963-03-22,Concert,269,Dijon,France,Europe,France,47.3215806,5.0414701
23/03/63,23,3,63,,,328,OK,1963,1963-03-23,Concert,270,Troyes,France,Europe,France,48.2971626,4.0746257
24/03/63,24,3,63,,,329,OK,1963,1963-03-24,Concert,271,Châlons-sur-Vesle,France,Europe,France,49.2893549,3.9182096
25/03/63,25,3,63,Cinéma Le Paris,,330,OK,1963,1963-03-25,Concert,272,Thionville,France,Europe,France,49.3591614,6.1529769
26/03/63,26,3,63,,,331,OK,1963,1963-03-26,Concert,273,Épinal,France,Europe,France,48.1745653,6.449823
27/03/63,27,3,63,Hall du Wacken,,332,OK,1963,1963-03-27,Concert,274,Strasbourg,France,Europe,France,48.584614,7.7507127
28/03/63,28,3,63,"Le 
                Rio",,333,OK,1963,1963-03-28,Concert,275,Nancy,France,Europe,France,48.6937223,6.1834097
29/03/63,29,3,63,Opéra,,334,OK,1963,1963-03-29,Concert,276,Reims,France,Europe,France,49.2577886,4.031926
30/03/63,30,3,63,,,335,OK,1963,1963-03-30,Concert,277,Maubeuge,France,Europe,France,50.2785567,3.9743784
31/03/63,31,3,63,"Concertgebouw
              Grote Zaal",Concert retransmis par Canal+ dans la nuit Johnny de mai 1993,336,OK,1963,1963-03-31,Concert,278,Amsterdam,Pays-Bas,Europe,Europe,52.3745403,4.89797550561798
01/04/63,1,4,63,"Le 
                Ritz",,337,OK,1963,1963-04-01,Concert,279,Lille,France,Europe,France,50.6305089,3.0706414
02/04/63,2,4,63,,,338,OK,1963,1963-04-02,Concert,280,Rouen,France,Europe,France,49.4404591,1.0939658
03/04/63,3,4,63,Le Rex,,339,OK,1963,1963-04-03,Concert,281,Chartres,France,Europe,France,48.4470039,1.4866387
04/04/63,4,4,63,,,340,OK,1963,1963-04-04,Concert,282,Mantes-la-Jolie,France,Europe,France,48.9891971,1.7140683
05/04/63,5,4,63,Ciné Novéac,,341,OK,1963,1963-04-05,Concert,283,Valenciennes,France,Europe,France,50.3594889,3.5266657
06/04/63,6,4,63,,,342,OK,1963,1963-04-06,Concert,284,Amiens,France,Europe,France,49.8941708,2.2956951
07/04/63,7,4,63,,,343,OK,1963,1963-04-07,Concert,285,Place Henri Bodelot,France,Europe,France,50.4762829,2.55708516857387
08/04/63,8,4,63,Cinéma Casino,"Malaise sur scéne à la 2éme chanson
              Concert reporté début Mai",344,OK,1963,1963-04-08,Concert à problèmes,286,Roubaix,France,Europe,France,50.6915893,3.1741734
09/04/63,9,4,63,,,345,OK,1963,1963-04-09,Concert,287,Saint-Quentin,France,Europe,France,49.8486111,3.2863888
10/04/63,10,4,63,,,346,OK,1963,1963-04-10,Concert,288,Lens,France,Europe,France,50.4291723,2.8319805
13/04/63,13,4,63,,,348,OK,1963,1963-04-13,Concert,289,Tunis,France,Europe,France,44.1836482,-0.026106
30/04/63,30,4,63,Cinéma Grand Palais,,349,OK,1963,1963-04-30,Concert,290,Bourges,France,Europe,France,47.0805693,2.398932
22/06/63,22,6,63,Place de la Nation,"Concert gratuit Europe n°1
Plus de 150.000 jeunes",367,OK,1963,1963-06-22,Concert,291,Paris,France,Europe,France,48.8566101,2.3514992
07/07/63,7,7,63,,,369,OK,1963,1963-07-07,Concert,292,Aurillac,France,Europe,France,44.9285441,2.4433101
12/07/63,12,7,63,Casino,,370,OK,1963,1963-07-12,Concert,293,Quiberon,France,Europe,France,47.4874,-3.12152
13/07/63,13,7,63,Casino,,371,OK,1963,1963-07-13,Concert,294,Les Sables-d'Olonne,France,Europe,France,46.4990505,-1.7767859
14/07/63,14,7,63,Casino,"""La Marseillaise"" en Twist",372,OK,1963,1963-07-14,Concert,295,Trouville,France,Europe,France,49.5732368,0.6010584
15/07/63,15,7,63,Casino,,373,OK,1963,1963-07-15,Concert,296,Besançon,France,Europe,France,47.237953,6.0243246
16/07/63,16,7,63,Casino,,374,OK,1963,1963-07-16,Concert,297,Annecy,France,Europe,France,45.908795,6.1198672
17/07/63,17,7,63,"Théâtre 
                de Verdure",,375,OK,1963,1963-07-17,Concert,298,Draguignan,France,Europe,France,43.5374662,6.4627333
18/07/63,18,7,63,"Théâtre 
                du Pharo",,376,OK,1963,1963-07-18,Concert,299,Marseille,France,Europe,France,43.2961743,5.3699525
19/07/63,19,7,63,"Théâtre 
                de Verdure",,377,OK,1963,1963-07-19,Concert,300,Les Issambres,France,Europe,France,43.3501328,6.6943542
20/07/63,20,7,63,Arènes,,378,OK,1963,1963-07-20,Concert,301,Pérols,France,Europe,France,43.5586003,3.9502006
21/07/63,21,7,63,"Théâtre 
                de Verdure",,379,OK,1963,1963-07-21,Concert,302,Le Cannet,France,Europe,France,43.5761076,7.0191865
22/07/63,22,7,63,"Vieux 
                Colombier",,380,OK,1963,1963-07-22,Concert,303,Juan-les-Pins,France,Europe,France,43.5676357,7.1141716
23/07/63,23,7,63,"Théâtre 
                de Verdure",,381,OK,1963,1963-07-23,Concert,304,Les Sablettes,France,Europe,France,43.080365,5.8921945
24/07/63,24,7,63,"Théâtre 
                de Verdure",,382,OK,1963,1963-07-24,Concert,305,Nice,France,Europe,France,43.7009358,7.2683912
25/07/63,25,7,63,,,383,OK,1963,1963-07-25,Concert,306,Bagnols-sur-Cèze,France,Europe,France,44.160481,4.6235831
27/07/63,27,7,63,Les arènes,,385,OK,1963,1963-07-27,Concert,307,Nîmes,France,Europe,France,43.8374249,4.3600687
28/07/63,28,7,63,Théâtre de Verdure,,386,OK,1963,1963-07-28,Concert,308,Béziers,France,Europe,France,43.341279,3.2166203
29/07/63,29,7,63,Théâtre de Verdure,,387,OK,1963,1963-07-29,Concert,309,Hyères,France,Europe,France,43.1202573,6.1301614
30/07/63,30,7,63,,,388,OK,1963,1963-07-30,Concert,310,Perpignan,France,Europe,France,42.6953868,2.8844713
31/07/63,31,7,63,Grand Girque,,389,OK,1963,1963-07-31,Concert,311,Bayonne,France,Europe,France,43.4933379,-1.475099
03/08/63,3,8,63,Opéra,,390,OK,1963,1963-08-03,Concert,312,Reims,France,Europe,France,49.2577886,4.031926
04/08/63,4,8,63,,,391,OK,1963,1963-08-04,Concert,313,Bouy-Luxembourg,France,Europe,France,48.3777152,4.2576617
05/08/63,5,8,63,Cité de la jeunesse,,392,OK,1963,1963-08-05,Concert,314,Sanary-sur-Mer,France,Europe,France,43.1177238,5.8008839
06/08/63,6,8,63,Les arènes,,393,OK,1963,1963-08-06,Concert,315,Fréjus,France,Europe,France,43.4330308,6.7360182
08/08/63,8,8,63,Casino,,394,OK,1963,1963-08-08,Concert,316,Gérardmer,France,Europe,France,48.0731443,6.8795758
09/08/63,9,8,63,Casino,,395,OK,1963,1963-08-09,Concert,317,Plombières-les-Bains,France,Europe,France,47.9641254,6.4564439
11/08/63,11,8,63,Casino,"Matinée 
              Cachet reversé aux mineurs en grève",397,OK,1963,1963-08-11,Concert,318,Thionville,France,Europe,France,49.3591614,6.1529769
12/08/63,12,8,63,Casino,,399,OK,1963,1963-08-12,Concert,319,Blankenberge,Belgique,Europe,Europe,51.3125734,3.1280675
13/08/63,13,8,63,Casino,,400,OK,1963,1963-08-13,Concert,320,Boulogne-sur-Mer,France,Europe,France,50.7259985,1.6118771
14/08/63,14,8,63,Stade Louis Petit,,401,OK,1963,1963-08-14,Concert,321,Huy,Belgique,Europe,Europe,50.5215385,5.2357453
15/08/63,15,8,63,Casino,,402,OK,1963,1963-08-15,Concert,322,Spa,Belgique,Europe,Europe,50.4920838,5.8626233
16/08/63,16,8,63,Théâtre de Verdure,,403,OK,1963,1963-08-16,Concert,323,Nice,France,Europe,France,43.7009358,7.2683912
17/08/63,17,8,63,,,404,OK,1963,1963-08-17,Concert,324,Cagnes-sur-Mer,France,Europe,France,43.6612012,7.1513834
18/08/63,18,8,63,,,405,OK,1963,1963-08-18,Concert,325,Biarritz,France,Europe,France,43.4815899,-1.556116
19/08/63,19,8,63,,,406,OK,1963,1963-08-19,Concert,326,Arcachon,France,Europe,France,44.6539428,-1.1755714
20/08/63,20,8,63,,,407,OK,1963,1963-08-20,Concert,327,Royan,France,Europe,France,45.6245332,-1.0287636
21/08/63,21,8,63,"Le 
                Boléro",,408,OK,1963,1963-08-21,Concert,328,Ciboure,France,Europe,France,43.3844003,-1.6676238
22/08/63,22,8,63,,,409,OK,1963,1963-08-22,Concert,329,Soorts-Hossegor,France,Europe,France,43.6584045,-1.4262382
23/08/63,23,8,63,Casino des Sables,,410,OK,1963,1963-08-23,Concert,330,Les Sables-d'Olonne,France,Europe,France,46.4990505,-1.7767859
24/08/63,24,8,63,,,411,OK,1963,1963-08-24,Concert,331,Ribérac,France,Europe,France,45.2477778,0.3397222
25/08/63,25,8,63,Théâtre de la promenade,,412,OK,1963,1963-08-25,Concert,332,Nay,France,Europe,France,43.1798743,-0.2621768
26/08/63,26,8,63,Casino,,413,OK,1963,1963-08-26,Concert,333,Châtelaillon-Plage,France,Europe,France,46.0738633,-1.0903991
27/08/63,27,8,63,,,414,OK,1963,1963-08-27,Concert,334,La Baule-Escoublac,France,Europe,France,47.2843726,-2.3951595
28/08/63,28,8,63,,,415,OK,1963,1963-08-28,Concert,335,Saint-Malo,France,Europe,France,48.6454528,-2.015418
29/08/63,29,8,63,Casino,,416,OK,1963,1963-08-29,Concert,336,Divonne-les-Bains,France,Europe,France,46.3553934,6.1426587
30/08/63,30,8,63,,,417,OK,1963,1963-08-30,Concert,337,Saint-Moritz,Suisse,Europe,Europe,46.4960592,9.8386578
31/08/63,31,8,63,,,418,OK,1963,1963-08-31,Concert,338,Aix-les-Bains,France,Europe,France,45.6886292,5.9146362
15/10/63,15,10,63,Olympia,Musicorama exeptionnel,419,OK,1963,1963-10-15,Concert,339,Paris,France,Europe,France,48.8566101,2.3514992
20/10/63,20,10,63,Théatre communal,Matinée,420,OK,1963,1963-10-20,Concert,340,La Louvière,Belgique,Europe,Europe,50.479487,4.1852682
21/10/63,21,10,63,Palace,"Philippe Norman, 
              Les Lionceaux, Pierre Vassiliu, Sylvie Vartan",422,OK,1963,1963-10-21,Concert,341,Liège,Belgique,Europe,Europe,50.6451381,5.5734203
22/10/63,22,10,63,Palace,"Philippe Norman, 
              Les Lionceaux, Pierre Vassiliu, Sylvie Vartan",423,OK,1963,1963-10-22,Concert,342,Liège,Belgique,Europe,Europe,50.6451381,5.5734203
23/10/63,23,10,63,Ciné T héatre,,424,OK,1963,1963-10-23,Concert,343,Châtelet,Belgique,Europe,Europe,50.4046075,4.5243511
31/10/63,31,10,63,Eden,,426,OK,1963,1963-10-31,Concert,344,Mouscron,Belgique,Europe,Europe,50.7433351,3.2139093
02/11/63,2,11,63,Ritz,,427,OK,1963,1963-11-02,Concert,345,Isbergues,France,Europe,France,50.6211244,2.4574631
03/11/63,3,11,63,Rex,Matinée,428,OK,1963,1963-11-03,Concert,346,Arras,France,Europe,France,50.291048,2.7772211
04/11/63,4,11,63,Hippodrome Municipal,,430,OK,1963,1963-11-04,Concert,347,Douai,France,Europe,France,50.3703683,3.0761377
05/11/63,5,11,63,Ponthieu,,431,OK,1963,1963-11-05,Concert,348,Abbeville,France,Europe,France,50.1060835,1.8337029
06/11/63,6,11,63,"Théâtre 
                des Arts",,432,OK,1963,1963-11-06,Concert,349,Calais,France,Europe,France,50.9488,1.87468
07/11/63,7,11,63,Le Régent,,433,OK,1963,1963-11-07,Concert,350,Rosendaël,France,Europe,France,51.0412387,2.4037367
08/11/63,8,11,63,Paris,,434,OK,1963,1963-11-08,Concert,351,Maubeuge,France,Europe,France,50.2785567,3.9743784
09/11/63,9,11,63,"Théâtre 
                du Cirque",,435,OK,1963,1963-11-09,Concert,352,Amiens,France,Europe,France,49.8941708,2.2956951
10/11/63,10,11,63,L'ABC,Matinée,436,OK,1963,1963-11-10,Concert,353,Le Havre,France,Europe,France,49.4938975,0.1079732
10/11/63,10,11,63,L'ABC,Soirée,437,OK,1963,1963-11-10,Concert,354,Le Havre,France,Europe,France,49.4938975,0.1079732
11/11/63,11,11,63,Eden,,438,OK,1963,1963-11-11,Concert,355,Caen,France,Europe,France,49.1828008,-0.3690815
12/11/63,12,11,63,Omnia,,439,OK,1963,1963-11-12,Concert,356,Rouen,France,Europe,France,49.4404591,1.0939658
13/11/63,13,11,63,Royal,,440,OK,1963,1963-11-13,Concert,357,Saint-Brieuc,France,Europe,France,48.5141594,-2.7602707
14/11/63,14,11,63,Le Paris,Premier concert de Joey Gréco et Ralph Di Pietro,441,OK,1963,1963-11-14,Concert,358,Brest,France,Europe,France,48.3905283,-4.4860088
15/11/63,15,11,63,Le Paris,,442,OK,1963,1963-11-15,Concert,359,Brest,France,Europe,France,48.3905283,-4.4860088
16/11/63,16,11,63,,"Sylvie Vartan, 
              Pierre Vassiliu",443,OK,1963,1963-11-16,Concert,360,Quimper,France,Europe,France,47.9960325,-4.1024782
17/11/63,17,11,63,,"Sylvie Vartan, 
              Pierre Vassiliu",444,OK,1963,1963-11-17,Concert,361,Lorient,France,Europe,France,47.7477336,-3.3660907
18/11/63,18,11,63,,"Sylvie Vartan, 
              Pierre Vassiliu",445,OK,1963,1963-11-18,Concert,362,Angoulême,France,Europe,France,45.6496755,0.1568658
19/11/63,19,11,63,Le Paris,"Sylvie Vartan, 
              Pierre Vassiliu",446,OK,1963,1963-11-19,Concert,363,Limoges,France,Europe,France,45.8354243,1.2644847
20/11/63,20,11,63,,"Sylvie Vartan, 
                Pierre Vassiliu",447,OK,1963,1963-11-20,Concert,364,Clermont-Ferrand,France,Europe,France,45.7774551,3.0819427
21/11/63,21,11,63,,"Sylvie Vartan, 
              Pierre Vassiliu",448,OK,1963,1963-11-21,Concert,365,Saint-Étienne,France,Europe,France,45.4401467,4.3873058
22/11/63,22,11,63,,"Sylvie Vartan, 
                Pierre Vassiliu",449,OK,1963,1963-11-22,Concert,366,Annecy,France,Europe,France,45.908795,6.1198672
23/11/63,23,11,63,"Patinoire 
                des Vernets","Sylvie Vartan, 
                Pierre Vassiliu, 
Eric Charden",450,OK,1963,1963-11-23,Concert,367,Genève,Suisse,Europe,Europe,48.965752,6.581146
24/11/63,24,11,63,Palais de Beaulieu,"Matinée Sylvie Vartan, 
Pierre Vassiliu, 
Eric Charden",451,OK,1963,1963-11-24,Concert,368,Lausanne,Suisse,Europe,Europe,46.5218269,6.6327025
07/12/63,7,12,63,Casino,,453,OK,1963,1963-12-07,Concert,369,Place Henri Bodelot,France,Europe,France,50.4762829,2.55708516857387
10/12/63,10,12,63,"L' 
                Excelsior",,454,OK,1963,1963-12-10,Concert,370,Sedan,France,Europe,France,49.7033759,4.9433409
11/12/63,11,12,63,"Le 
                Rio",,455,OK,1963,1963-12-11,Concert,371,Nancy,France,Europe,France,48.6937223,6.1834097
13/12/63,13,12,63,,,456,OK,1963,1963-12-13,Concert,372,Besançon,France,Europe,France,47.237953,6.0243246
14/12/63,14,12,63,"Palais 
                d'Hiver","Pierre Vassiliu, Hugues Aufray, Fia Karin",457,OK,1963,1963-12-14,Concert,373,Lyon,France,Europe,France,45.7578137,4.8320114
15/12/63,15,12,63,"Palais 
                d'Hiver","Pierre Vassiliu, 
              Hugues Aufray, Fia Karin",458,OK,1963,1963-12-15,Concert,374,Lyon,France,Europe,France,45.7578137,4.8320114
16/12/63,16,12,63,,,459,OK,1963,1963-12-16,Concert,375,Saint-Romans,France,Europe,France,45.1127,5.32627
17/12/63,17,12,63,,,460,OK,1963,1963-12-17,Concert,376,Valence,France,Europe,France,44.9332277,4.8920811
20/12/63,20,12,63,Casino,,461,OK,1963,1963-12-20,Concert,377,Beausoleil,France,Europe,France,43.748281,7.4219677
21/12/63,21,12,63,Casino,"Pierre Vassiliu, 
              Hugues Aufray",462,OK,1963,1963-12-21,Concert,378,Nice,France,Europe,France,43.7009358,7.2683912
22/12/63,22,12,63,Casino,"Pierre Vassiliu, 
              Hugues Aufray",463,OK,1963,1963-12-22,Concert,379,Nice,France,Europe,France,43.7009358,7.2683912
06/01/64,6,1,64,Casino,,468,OK,1964,1964-01-06,Concert,380,Cannes,France,Europe,France,43.5515198,7.0134418
10/01/64,10,1,64,Théâtre Municipal,,469,OK,1964,1964-01-10,Concert,381,Montpellier,France,Europe,France,43.6112422,3.8767337
11/01/64,11,1,64,"Théâtre 
Municipal",,470,OK,1964,1964-01-11,Concert,382,Grenoble,France,Europe,France,45.182151,5.7274722
12/01/64,12,1,64,Théâtre Municipal,Matinée,471,OK,1964,1964-01-12,Concert,383,Grenoble,France,Europe,France,45.182151,5.7274722
04/02/64,4,2,64,Rex,"Tiny 
YONG, Hugues AUFRAY",473,OK,1964,1964-02-04,Concert,384,Chartres,France,Europe,France,48.4470039,1.4866387
05/02/64,5,2,64,Cyrano,"Tiny 
YONG, Hugues AUFRAY",474,OK,1964,1964-02-05,Concert,385,Versailles,France,Europe,France,48.8035403,2.1266886
28/03/64,28,3,64,Les Arènes,,478,OK,1964,1964-03-28,Concert,386,Casablanca,Maroc,Afrique,Afrique,33.5950627,-7.6187768
29/03/64,29,3,64,Casino,,479,OK,1964,1964-03-29,Concert,387,Mohammedia,Maroc,Afrique,Afrique,33.6958383,-7.3893292
04/04/64,4,4,64,Rex,"Pierre 
Vassiliu, Eric Charden",480,OK,1964,1964-04-04,Concert,388,Dieppe,France,Europe,France,49.9246182,1.0791444
10/04/64,10,4,64,Théâtre,"Pierre Vassiliu, Eric Charden",481,OK,1964,1964-04-10,Concert,389,Cherbourg,France,Europe,France,49.6397213,-1.6258285
11/04/64,11,4,64,,"Pierre Vassiliu, Eric Charden",482,OK,1964,1964-04-11,Concert,390,Val-de-Fier,France,Europe,France,45.9196529,5.9118344
16/04/64,16,4,64,"Théâtre 
Municipal","Pierre 
Vassiliu, Eric Charden",483,OK,1964,1964-04-16,Concert,391,Cognac,France,Europe,France,45.6931647,-0.3250175
18/04/64,18,4,64,"Palais 
d'Hiver","Pierre 
Vassiliu, Eric Charden, Sophie",484,OK,1964,1964-04-18,Concert,392,Lyon,France,Europe,France,45.7578137,4.8320114
19/04/64,19,4,64,"Palais 
d'Hiver","Pierre 
Vassiliu, Eric Charden, Sophie",485,OK,1964,1964-04-19,Concert,393,Lyon,France,Europe,France,45.7578137,4.8320114
20/04/64,20,4,64,,,486,OK,1964,1964-04-20,Concert,394,Saintes,France,Europe,France,45.7420801,-0.6299329
21/04/64,21,4,64,"Palais 
des Sports",Malaise,487,OK,1964,1964-04-21,Concert à problèmes,395,Toulouse,France,Europe,France,43.6044622,1.4442469
22/04/64,22,4,64,Florida,"Pierre 
Vassiliu, Eric Charden, Long Chris",488,OK,1964,1964-04-22,Concert,396,Agen,France,Europe,France,44.2015624,0.6176324
01/05/64,1,5,64,Opéra,"Dernier 
  concert avant l'Arméeavec Pierre Vassiliu, 
Eric Charden, Long Chris, 
Les Daltons, Sophie.",490,OK,1964,1964-05-01,Concert,397,Reims,France,Europe,France,49.2577886,4.031926
12/09/64,12,9,64,Golf Drouot,"Avec Les Pingouins,  Long Chris",491,OK,1964,1964-09-12,Concert,398,Paris,France,Europe,France,48.8566101,2.3514992
05/08/65,5,8,65,Fête de la biere,"Premier Pré- Concert de  retour 
à la vie civile",492,OK,1965,1965-08-05,Concert,399,Strasbourg,France,Europe,France,48.584614,7.7507127
06/08/65,6,8,65,Casino,,493,OK,1965,1965-08-06,Concert,400,Vittel,France,Europe,France,48.2018367,5.9492242
07/08/65,7,8,65,Kursaal,,494,OK,1965,1965-08-07,Concert,401,Ostende,Belgique,Europe,Europe,51.224172,2.921106
08/08/65,8,8,65,Casino,,495,OK,1965,1965-08-08,Concert,402,Juan Les Pins,France,Europe,France,43.5676357,7.1141716
12/08/65,12,8,65,,,497,OK,1965,1965-08-12,Concert,403,Nice,France,Europe,France,43.7009358,7.2683912
17/08/65,17,8,65,,,498,OK,1965,1965-08-17,Concert,404,Aix-les-Bains,France,Europe,France,45.6886292,5.9146362
18/08/65,18,8,65,Patinoire des Vernets,,499,OK,1965,1965-08-18,Concert,405,Genève,Suisse,Europe,Europe,48.965752,6.581146
19/08/65,19,8,65,Casino,,500,OK,1965,1965-08-19,Concert,406,Évian-les-Bains,France,Europe,France,46.400979,6.5897931
20/08/65,20,8,65,Casino,,501,OK,1965,1965-08-20,Concert,407,Montreux,Suisse,Europe,Europe,46.4310831,6.9129921
22/08/65,22,8,65,,,502,OK,1965,1965-08-22,Concert,408,Deauville,France,Europe,France,49.36,0.0752778
28/08/65,28,8,65,Fête de la biere,"Matinée à 15h00 
                   Spectacle d'adieu aux copains de l'armée",503,OK,1965,1965-08-28,Concert,409,Colmar,France,Europe,France,48.0777517,7.3579641
28/08/65,28,8,65,,Soirée,504,OK,1965,1965-08-28,Concert,410,Juan Les Pins,France,Europe,France,43.5676357,7.1141716
12/10/65,12,10,65,,"Avec Sylvie Vartan pour le gala 
      des 10 ans d'Europe n°1",510,OK,1965,1965-10-12,Concert,411,Toulouse,France,Europe,France,43.6044622,1.4442469
03/11/65,3,11,65,Ciné Eden,"Eileen, Thierry Vincent, Jean-Jacques Debout",511,OK,1965,1965-11-03,Concert,412,Mouscron,Belgique,Europe,Europe,50.7433351,3.2139093
04/11/65,4,11,65,Forum,"Guy Laurie, Eileen, Thierry Vincent, 
      Larry Greco, Jean-Jacques Debout",512,OK,1965,1965-11-04,Concert,413,Liège,Belgique,Europe,Europe,50.6451381,5.5734203
08/11/65,8,11,65,London Palladium,"Royal Command Performance 
    avec Sylvie Vartan",513,OK,1965,1965-11-08,Concert,414,Londres,Royaume-Uni,Europe,Europe,51.5073219,-0.1276474
13/11/65,13,11,65,Palais d'Hiver,,514,OK,1965,1965-11-13,Concert,415,Lyon,France,Europe,France,45.7578137,4.8320114
14/11/65,14,11,65,Palais d'Hiver,,515,OK,1965,1965-11-14,Concert,416,Lyon,France,Europe,France,45.7578137,4.8320114
21/01/66,21,1,66,l'Hotel Bayerischer Hof,Avec Sylvie Vartan pour le Bal Paré,517,OK,1966,1966-01-21,Concert,417,Munich,Allemagne,Europe,Europe,48.1371079,11.5753822
27/02/66,27,2,66,Golf Drouot,Les 6 ans de carrière de Johnny,518,OK,1966,1966-02-27,Concert,418,Paris,France,Europe,France,48.8566101,2.3514992
25/03/66,25,3,66,Place des arts,,520,OK,1966,1966-03-25,Concert,419,Montreal,Canada,Amériques,Amériques,45.4972159,-73.6103642
26/03/66,26,3,66,Place des arts,Matinée,521,OK,1966,1966-03-26,Concert,420,Montreal,Canada,Amériques,Amériques,45.4972159,-73.6103642
27/03/66,27,3,66,Place des arts,Matinée,523,OK,1966,1966-03-27,Concert,421,Montreal,Canada,Amériques,Amériques,45.4972159,-73.6103642
28/03/66,28,3,66,Place des arts,,525,OK,1966,1966-03-28,Concert,422,Montreal,Canada,Amériques,Amériques,45.4972159,-73.6103642
30/03/66,30,3,66,Centre de loisirs,,526,OK,1966,1966-03-30,Concert,423,Joliette,Canada,Amériques,Amériques,46.0243857,-73.439845
31/03/66,31,3,66,Centre Civique,,527,OK,1966,1966-03-31,Concert,424,Drummondville,Canada,Amériques,Amériques,45.8864303,-72.5018764
01/04/66,1,4,66,Théatre Capitol,,528,OK,1966,1966-04-01,Concert,425,Quebec,Canada,Amériques,Amériques,52.4760892,-71.8258668
02/04/66,2,4,66,Théatre Capitol,,529,OK,1966,1966-04-02,Concert,426,Quebec,Canada,Amériques,Amériques,52.4760892,-71.8258668
03/04/66,3,4,66,Centre Geoges-Vézina,,530,OK,1966,1966-04-03,Concert,427,Chicoutimi,Canada,Amériques,Amériques,48.4286352,-71.0637121
21/04/66,21,4,66,,,531,OK,1966,1966-04-21,Concert,428,Toulouse,France,Europe,France,43.6044622,1.4442469
30/04/66,30,4,66,,,533,OK,1966,1966-04-30,Concert,429,Brunoy,France,Europe,France,48.6979312,2.5044613
30/07/66,30,7,66,Les Arènes,,544,OK,1966,1966-07-30,Concert,430,Fréjus,France,Europe,France,43.4330308,6.7360182
14/08/66,14,8,66,Salice Termes,,546,OK,1966,1966-08-14,Concert,431,Milan,Italie,Europe,Europe,45.4667971,9.1904984
15/08/66,15,8,66,Lido,,547,OK,1966,1966-08-15,Concert,432,Venase,Italie,Europe,Europe,45.6978087,10.3284882
20/08/66,20,8,66,Casino,,548,OK,1966,1966-08-20,Concert,433,Divonne-les-Bains,France,Europe,France,46.3553934,6.1426587
10/09/66,10,9,66,Fête de L'Humanité,Annulé suite à la tentative de suicide de Johnny le 10 septembre dans l'après-midi.,549,OK,1966,1966-09-10,Concert annulé,434,Vincennes,France,Europe,France,48.8474508,2.4396714
11/09/66,11,9,66,Festival annuel,Annulé suite à la tentative de suicide de Johnny le 10 septembre dans l'après-midi. Remplacé par Hugues Aufray,550,OK,1966,1966-09-11,Concert annulé,435,Châtelet,Belgique,Europe,Europe,50.4046075,4.5243511
13/10/66,13,10,66,Le Novelty,"Long Chris, 
                    
                The Blackburds, Jimi Hendrix",551,OK,1966,1966-10-13,Concert,436,Évreux,France,Europe,France,49.0183639,1.1375865
14/10/66,14,10,66,Le Rio,"Long Chris, 
                The Blackburds, Jimi Hendrix",552,OK,1966,1966-10-14,Concert,437,Nancy,France,Europe,France,48.6937223,6.1834097
15/10/66,15,10,66,Salle des Fêtes,"Long Chris, 
                The Blackburds, Jimi Hendrix",553,OK,1966,1966-10-15,Concert,438,Villerupt,France,Europe,France,49.468468,5.9326783
18/10/66,18,10,66,"Olympia ""Musicorama""","Brian Auger, 
                      
                    Julie Driscoll, 
                The Blackburds, Long Chris,
              Jimi Hendrix",554,OK,1966,1966-10-18,Concert,439,Paris,France,Europe,France,48.8566101,2.3514992
23/10/66,23,10,66,Cinéma Lux,,555,OK,1966,1966-10-23,Concert,440,Frameries,Belgique,Europe,Europe,50.4087571,3.8905656
02/11/66,2,11,66,Le Royal,"The Blackburds, Noël Deschamps",556,OK,1966,1966-11-02,Concert,441,Rennes,France,Europe,France,48.1113387,-1.6800198
03/11/66,3,11,66,Le Royal,,557,OK,1966,1966-11-03,Concert,442,Lorient,France,Europe,France,47.7477336,-3.3660907
04/11/66,4,11,66,Vox,,558,OK,1966,1966-11-04,Concert,443,Brest,France,Europe,France,48.3905283,-4.4860088
05/11/66,5,11,66,Athénée,,559,OK,1966,1966-11-05,Concert,444,Saint-Nazaire,France,Europe,France,47.2733517,-2.2138905
06/11/66,6,11,66,,,560,OK,1966,1966-11-06,Concert,445,Vendôme,France,Europe,France,47.7955178,1.0661684
07/11/66,7,11,66,Salle  des Fêtes,,561,OK,1966,1966-11-07,Concert,446,Périgueux,France,Europe,France,45.1909365,0.7184407
08/11/66,8,11,66,Gallia,,562,OK,1966,1966-11-08,Concert,447,Saintes,France,Europe,France,45.7420801,-0.6299329
09/11/66,9,11,66,Casino,,563,OK,1966,1966-11-09,Concert,448,Biarritz,France,Europe,France,43.4815899,-1.556116
10/11/66,10,11,66,Olympia,"Création 
                  de 
                  ""Si j'étais un charpentier""",564,OK,1966,1966-11-10,Concert,449,Bordeaux,France,Europe,France,44.841225,-0.5800364
11/11/66,11,11,66,Théâtre,,565,OK,1966,1966-11-11,Concert,450,Montauban,France,Europe,France,44.0175835,1.3549991
12/11/66,12,11,66,Palais des Sports,,566,OK,1966,1966-11-12,Concert,451,Toulouse,France,Europe,France,43.6044622,1.4442469
13/11/66,13,11,66,Olympia,,567,OK,1966,1966-11-13,Concert,452,Tarbes,France,Europe,France,43.232858,0.0781021
14/11/66,14,11,66,Théatre,,568,OK,1966,1966-11-14,Concert,453,Albi,France,Europe,France,43.9277552,2.147899
15/11/66,15,11,66,Family,,569,OK,1966,1966-11-15,Concert,454,Decazeville,France,Europe,France,44.5585148,2.2542071
16/11/66,16,11,66,Le Royal,,570,OK,1966,1966-11-16,Concert,455,Millau,France,Europe,France,44.1006693,3.0777594
17/11/66,17,11,66,Club,,571,OK,1966,1966-11-17,Concert,456,Saint-Romans,France,Europe,France,45.1127,5.32627
18/11/66,18,11,66,Théâtre,,572,OK,1966,1966-11-18,Concert,457,Besançon,France,Europe,France,47.237953,6.0243246
19/11/66,19,11,66,Omnia,,573,OK,1966,1966-11-19,Concert,458,Dole,France,Europe,France,47.0921047,5.4925463
20/11/66,20,11,66,Théâtre Municipal,,574,OK,1966,1966-11-20,Concert,459,Dijon,France,Europe,France,47.3215806,5.0414701
23/11/66,23,11,66,Palais des Fêtes,,575,OK,1966,1966-11-23,Concert,460,Roanne,France,Europe,France,46.0363902,4.0738682
26/11/66,26,11,66,Cinéma Eden,,576,OK,1966,1966-11-26,Concert,461,Bourg-en-Bresse,France,Europe,France,46.2051192,5.2250324
25/11/66,25,11,66,Salle Marcel Sembat,,577,OK,1966,1966-11-25,Concert,462,Chalon-sur-Saône,France,Europe,France,46.7888997,4.8529605
26/11/66,26,11,66,Kursaal,,578,OK,1966,1966-11-26,Concert,463,Bâle,Suisse,Europe,Europe,47.5581077,7.5878261
28/11/66,28,11,66,Palace,,579,OK,1966,1966-11-28,Concert,464,Nevers,France,Europe,France,46.9945997,3.1591285
29/11/66,29,11,66,Variétés,,580,OK,1966,1966-11-29,Concert,465,Melun,France,Europe,France,48.539927,2.6608169
30/11/66,30,11,66,Cirque,,581,OK,1966,1966-11-30,Concert,466,Troyes,France,Europe,France,48.2971626,4.0746257
01/12/66,1,12,66,Le Colisée,,582,OK,1966,1966-12-01,Concert,467,Montbéliard,France,Europe,France,47.5102368,6.7977564
02/12/66,2,12,66,Le Palace,,583,OK,1966,1966-12-02,Concert,468,Épinal,France,Europe,France,48.1745653,6.449823
03/12/66,3,12,66,Palais des Fêtes,,584,OK,1966,1966-12-03,Concert,469,Metz,France,Europe,France,49.1196964,6.1763552
05/12/66,5,12,66,Le Rit's,,585,OK,1966,1966-12-05,Concert,470,Strasbourg,France,Europe,France,48.584614,7.7507127
07/12/66,7,12,66,Le Ponthieu,,586,OK,1966,1966-12-07,Concert,471,Abbeville,France,Europe,France,50.1060835,1.8337029
08/12/66,8,12,66,Le Coquelin,,587,OK,1966,1966-12-08,Concert,472,Boulogne,France,Europe,France,46.7927906,-1.3202973
09/12/66,9,12,66,Le Carillon,,588,OK,1966,1966-12-09,Concert,473,Saint-Quentin,France,Europe,France,49.8486111,3.2863888
10/12/66,10,12,66,Le Palais d'Hiver,"Long Chris, 
                    
                Noël Deschamps",589,OK,1966,1966-12-10,Concert,474,Lyon,France,Europe,France,45.7578137,4.8320114
11/12/66,11,12,66,Le Palais d'Hiver,"MatinéeLong Chris, 
              Noël Deschamps",590,OK,1966,1966-12-11,Concert,475,Lyon,France,Europe,France,45.7578137,4.8320114
12/12/66,12,12,66,L'Empire,,592,OK,1966,1966-12-12,Concert,476,Reims,France,Europe,France,49.2577886,4.031926
31/12/66,31,12,66,Forum,"Concert 
                exceptionnel 
à minuit de 
Eddy Mitchell et 
Johnny Hallyday",593,OK,1966,1966-12-31,Concert,477,Liège,Belgique,Europe,Europe,50.6451381,5.5734203
01/01/67,1,1,67,Palais des Beaux-Arts,"Concert exceptionnel 
de Eddy Mitchell et Johnny Hallyday",594,OK,1967,1967-01-01,Concert,478,Bruxelles,Belgique,Europe,Europe,50.8465573,4.351697
02/01/67,2,1,67,Palais des Beaux-Arts,"Concert exceptionnel 
de Eddy Mitchell et Johnny Hallyday retransmis en direct sur Europe N°1, commenté par Hubert Wayaffe et Sylvie Vartan",595,OK,1967,1967-01-02,Concert,479,Charleroi,Belgique,Europe,Europe,50.4120332,4.4436244
04/01/67,4,1,67,Cour du Shah,Concert privé pour la cour du Roi avec Sylvie Vartan,596,OK,1967,1967-01-04,Concert,480,Tehran,Iran,Asie,Asie,35.7006177,51.401375
07/01/67,7,1,67,Le Majestic,,597,OK,1967,1967-01-07,Concert,481,Algiers,Algérie,Afrique,Afrique,36.775348,3.060065
08/01/67,8,1,67,Le Majestic,,598,OK,1967,1967-01-08,Concert,482,Algiers,Algérie,Afrique,Afrique,36.775348,3.060065
13/01/67,13,1,67,Apollo,,599,OK,1967,1967-01-13,Concert,483,Nantes,France,Europe,France,47.2186371,-1.5541362
27/05/67,27,5,67,,Matinée,608,OK,1967,1967-05-27,Concert,484,Besançon,France,Europe,France,47.237953,6.0243246
27/05/67,27,5,67,,Soirée,609,OK,1967,1967-05-27,Concert,485,Oullins,France,Europe,France,45.7157,4.80271
10/06/67,10,6,67,"Dans le cadre des 
              24H",Diffusé sur France Inter,610,OK,1967,1967-06-10,Concert,486,Le Mans,France,Europe,France,48.0078605,0.1996565
25/06/67,25,6,67,"Dans le cadre du 
              Parapluie des Vedettes","Festival en plein 
              air terminé par Johnny, après Françoise Hardy",611,OK,1967,1967-06-25,Concert,487,Huy,Belgique,Europe,Europe,50.5215385,5.2357453
01/07/67,1,7,67,,,612,OK,1967,1967-07-01,Concert,488,Bailleul,France,Europe,France,50.7396668,2.7349286
02/07/67,2,7,67,,,613,OK,1967,1967-07-02,Concert,489,Brunémont,France,Europe,France,50.271708,3.1413993
09/07/67,9,7,67,,Annulé,614,OK,1967,1967-07-09,Concert annulé,490,Sarrebourg,France,Europe,France,48.7356751,7.0533301
11/07/67,11,7,67,,,615,OK,1967,1967-07-11,Concert,491,Grenoble,France,Europe,France,45.182151,5.7274722
12/07/67,12,7,67,Casino,,616,OK,1967,1967-07-12,Concert,492,Divonne-les-Bains,France,Europe,France,46.3553934,6.1426587
14/07/67,14,7,67,,Matinée,617,OK,1967,1967-07-14,Concert,493,Calonne-Ricouart,France,Europe,France,50.4894092,2.4844818
14/07/67,14,7,67,,Soirée,618,OK,1967,1967-07-14,Concert,494,Sallaumines,France,Europe,France,50.4199,2.86457
15/07/67,15,7,67,La clé des Champs,"Jimmy & Les King 
              Bees",619,OK,1967,1967-07-15,Concert,495,Corsica,France,Europe,France,42.18808965,9.06841377142769
16/07/67,16,7,67,,,620,OK,1967,1967-07-16,Concert,496,Ajaccio,France,Europe,France,41.9263991,8.7376029
17/07/67,17,7,67,,,621,OK,1967,1967-07-17,Concert,497,Annecy,France,Europe,France,45.908795,6.1198672
19/07/67,19,7,67,,,622,OK,1967,1967-07-19,Concert,498,Maubeuge,France,Europe,France,50.2785567,3.9743784
20/07/67,20,7,67,,,623,OK,1967,1967-07-20,Concert,499,Spa,Belgique,Europe,Europe,50.4920838,5.8626233
21/07/67,21,7,67,,,624,OK,1967,1967-07-21,Concert,500,Aubel,Belgique,Europe,Europe,50.7041498,5.8585553
22/07/67,22,7,67,,,625,OK,1967,1967-07-22,Concert,501,Trouville,France,Europe,France,49.5732368,0.6010584
26/07/67,26,7,67,,,626,OK,1967,1967-07-26,Concert,502,Sanary-sur-Mer,France,Europe,France,43.1177238,5.8008839
27/07/67,27,7,67,,,627,OK,1967,1967-07-27,Concert,503,Salou,Espagne,Europe,Europe,41.0768193,1.1440411
29/07/67,29,7,67,Les arènes,,628,OK,1967,1967-07-29,Concert,504,Le Grau-du-Roi,France,Europe,France,43.5361048,4.1360255
02/08/67,2,8,67,Théâtre Antique,,629,OK,1967,1967-08-02,Concert,505,Vienne,France,Europe,France,45.5252114,4.8747841
05/08/67,5,8,67,,,630,OK,1967,1967-08-05,Concert,506,Lézignan,France,Europe,France,43.0988008,-0.003562
06/08/67,6,8,67,,,631,OK,1967,1967-08-06,Concert,507,Fabregas,France,Europe,France,43.0706263,5.8710147
07/08/67,7,8,67,,,632,OK,1967,1967-08-07,Concert,508,Hendaye - Hendaia,France,Europe,France,43.3641518,-1.7616499
08/08/67,8,8,67,,,633,OK,1967,1967-08-08,Concert,509,Royan,France,Europe,France,45.6245332,-1.0287636
09/08/67,9,8,67,,,634,OK,1967,1967-08-09,Concert,510,Arcachon,France,Europe,France,44.6539428,-1.1755714
10/08/67,10,8,67,,,635,OK,1967,1967-08-10,Concert,511,Châtelaillon-Plage,France,Europe,France,46.0738633,-1.0903991
11/08/67,11,8,67,,,636,OK,1967,1967-08-11,Concert,512,La Baule-Escoublac,France,Europe,France,47.2843726,-2.3951595
12/08/67,12,8,67,,,637,OK,1967,1967-08-12,Concert,513,Doué-la-Fontaine,France,Europe,France,47.1937935,-0.2761917
13/08/67,13,8,67,Casino,,638,OK,1967,1967-08-13,Concert,514,Deauville,France,Europe,France,49.36,0.0752778
17/08/67,17,8,67,Casino,,639,OK,1967,1967-08-17,Concert,515,Évian-les-Bains,France,Europe,France,46.400979,6.5897931
18/08/67,18,8,67,,,640,OK,1967,1967-08-18,Concert,516,Clermont-Ferrand,France,Europe,France,45.7774551,3.0819427
19/08/67,19,8,67,,,641,OK,1967,1967-08-19,Concert,517,Feurs,France,Europe,France,45.7413143,4.2263699
20/08/67,20,8,67,Les arènes,,642,OK,1967,1967-08-20,Concert,518,Béziers,France,Europe,France,43.341279,3.2166203
21/08/67,21,8,67,Les arènes,,643,OK,1967,1967-08-21,Concert,519,Pérols,France,Europe,France,43.5586003,3.9502006
22/08/67,22,8,67,,,644,OK,1967,1967-08-22,Concert,520,Monaco,France,Europe,France,47.9965406,5.5307301
23/08/67,23,8,67,Les arènes,,645,OK,1967,1967-08-23,Concert,521,Fréjus,France,Europe,France,43.4330308,6.7360182
24/08/67,24,8,67,,,646,OK,1967,1967-08-24,Concert,522,Cannes,France,Europe,France,43.5515198,7.0134418
25/08/67,25,8,67,,,647,OK,1967,1967-08-25,Concert,523,Menton,France,Europe,France,43.7751405,7.4966252
26/08/67,26,8,67,,,648,OK,1967,1967-08-26,Concert,524,Nice,France,Europe,France,43.7009358,7.2683912
27/08/67,27,8,67,,"Accident en Lamborghini 
                présde Tarbes 
                nuit du 27 au 28",649,OK,1967,1967-08-27,Concert à problèmes,525,Hyères,France,Europe,France,43.1202573,6.1301614
28/08/67,28,8,67,,,650,OK,1967,1967-08-28,Concert,526,Bayonne,France,Europe,France,43.4933379,-1.475099
29/08/67,29,8,67,,,651,OK,1967,1967-08-29,Concert,527,Soorts-Hossegor,France,Europe,France,43.6584045,-1.4262382
03/09/67,3,9,67,,,652,OK,1967,1967-09-03,Concert,528,Cahors,France,Europe,France,44.4495,1.4364999
10/09/67,10,9,67,Festival du Châtelet,,653,OK,1967,1967-09-10,Concert,529,Charleroi,Belgique,Europe,Europe,50.4120332,4.4436244
13/09/67,13,9,67,,,654,OK,1967,1967-09-13,Concert,530,Bruxelles,Belgique,Europe,Europe,50.8465573,4.351697
02/11/67,2,11,67,,,655,OK,1967,1967-11-02,Concert,531,Rennes,France,Europe,France,48.1113387,-1.6800198
14/11/67,14,11,67,"Musicorama
              Palais des Sports","Les Troggs en 1ère 
              partie",656,OK,1967,1967-11-14,Concert,532,Paris,France,Europe,France,48.8566101,2.3514992
17/11/67,17,11,67,,,657,OK,1967,1967-11-17,Concert,533,Lille,France,Europe,France,50.6305089,3.0706414
18/11/67,18,11,67,,,658,OK,1967,1967-11-18,Concert,534,Amiens,France,Europe,France,49.8941708,2.2956951
19/11/67,19,11,67,,,659,OK,1967,1967-11-19,Concert,535,Anzin,France,Europe,France,50.3752242,3.5137253
21/11/67,21,11,67,,,660,OK,1967,1967-11-21,Concert,536,Dunkirk,France,Europe,France,51.0347708,2.3772525
22/11/67,22,11,67,Palais des Sports,,661,OK,1967,1967-11-22,Concert,537,Orléans,France,Europe,France,47.9027336,1.9086066
23/11/67,23,11,67,,,662,OK,1967,1967-11-23,Concert,538,Caen,France,Europe,France,49.1828008,-0.3690815
24/11/67,24,11,67,,,663,OK,1967,1967-11-24,Concert,539,Le Mans,France,Europe,France,48.0078605,0.1996565
25/11/67,25,11,67,,,664,OK,1967,1967-11-25,Concert,540,Châteauroux,France,Europe,France,46.8047,1.6957099
26/11/67,26,11,67,,,665,OK,1967,1967-11-26,Concert,541,Dijon,France,Europe,France,47.3215806,5.0414701
27/11/67,27,11,67,"Cinéma ""Le Palace""","1ère partie ""Les Charlots""",666,OK,1967,1967-11-27,Concert,542,Nevers,France,Europe,France,46.9945997,3.1591285
28/11/67,28,11,67,,,667,OK,1967,1967-11-28,Concert,543,Chalon-sur-Saône,France,Europe,France,46.7888997,4.8529605
29/11/67,29,11,67,,Annulé,668,OK,1967,1967-11-29,Concert annulé,544,Nancy,France,Europe,France,48.6937223,6.1834097
30/11/67,30,11,67,,,669,OK,1967,1967-11-30,Concert,545,Mulhouse,France,Europe,France,47.7494188,7.3399355
01/12/67,1,12,67,,,670,OK,1967,1967-12-01,Concert,546,Montbéliard,France,Europe,France,47.5102368,6.7977564
02/12/67,2,12,67,,,671,OK,1967,1967-12-02,Concert,547,Villerupt,France,Europe,France,49.468468,5.9326783
03/12/67,3,12,67,,,672,OK,1967,1967-12-03,Concert,548,Troyes,France,Europe,France,48.2971626,4.0746257
04/12/67,4,12,67,,,673,OK,1967,1967-12-04,Concert,549,Chaumont,France,Europe,France,48.1118812,5.1394503
05/12/67,5,12,67,,,674,OK,1967,1967-12-05,Concert,550,Avignon,France,Europe,France,43.9493143,4.8060329
06/12/67,6,12,67,,,675,OK,1967,1967-12-06,Concert,551,Perpignan,France,Europe,France,42.6953868,2.8844713
07/12/67,7,12,67,,,676,OK,1967,1967-12-07,Concert,552,Montpellier,France,Europe,France,43.6112422,3.8767337
08/12/67,8,12,67,,,677,OK,1967,1967-12-08,Concert,553,Bordeaux,France,Europe,France,44.841225,-0.5800364
09/12/67,9,12,67,Palais des Sports,,678,OK,1967,1967-12-09,Concert,554,Toulouse,France,Europe,France,43.6044622,1.4442469
10/12/67,10,12,67,,,679,OK,1967,1967-12-10,Concert,555,Villeneuve-sur-Lot,France,Europe,France,44.4056615,0.7046455
11/12/67,11,12,67,"Cinéma ""Le Français""",,680,OK,1967,1967-12-11,Concert,556,Angoulême,France,Europe,France,45.6496755,0.1568658
12/12/67,12,12,67,,,681,OK,1967,1967-12-12,Concert,557,Nantes,France,Europe,France,47.2186371,-1.5541362
13/12/67,13,12,67,,,682,OK,1967,1967-12-13,Concert,558,Angers,France,Europe,France,47.4739884,-0.5515588
14/12/67,14,12,67,,,683,OK,1967,1967-12-14,Concert,559,Laval,France,Europe,France,48.0710377,-0.7723499
15/12/67,15,12,67,,,684,OK,1967,1967-12-15,Concert,560,Chartres,France,Europe,France,48.4470039,1.4866387
16/12/67,16,12,67,,,685,OK,1967,1967-12-16,Concert,561,Strasbourg,France,Europe,France,48.584614,7.7507127
17/12/67,17,12,67,,,686,OK,1967,1967-12-17,Concert,562,Auxerre,France,Europe,France,47.7954001,3.58452
19/01/68,19,1,68,Le Psychedélic,Inauguration,688,OK,1968,1968-01-19,Concert,563,Paris,France,Europe,France,48.8566101,2.3514992
10/02/68,10,2,68,"Olympic
            Music-Hall","""Jeux Olympiques""
            Les Fleurs 
            De Pavot, 
            Herbert Léonard",689,OK,1968,1968-02-10,Concert,564,Grenoble,France,Europe,France,45.182151,5.7274722
22/02/68,22,2,68,,,690,OK,1968,1968-02-22,Concert,565,Roanne,France,Europe,France,46.0363902,4.0738682
23/03/68,23,3,68,"Centre 
            Paul Sauvé",Les Hou-Lops,698,OK,1968,1968-03-23,Concert,566,Montreal,Canada,Amériques,Amériques,45.4972159,-73.6103642
04/04/68,4,4,68,Star-Club,,699,OK,1968,1968-04-04,Concert,567,Hambourg,Allemagne,Europe,Europe,53.550341,10.000654
05/04/68,5,4,68,Festival Hippie,"Avec 
            Vigon et
           Jimmy James",700,OK,1968,1968-04-05,Concert,568,Courtrai,Belgique,Europe,Europe,50.814031,3.264247
09/04/68,9,4,68,Saarlandhalle,,701,OK,1968,1968-04-09,Concert,569,Allemagne,France,Europe,France,44.7210213,4.6583422
19/04/68,19,4,68,Circus  Krone-Bau,,702,OK,1968,1968-04-19,Concert,570,Munich,Allemagne,Europe,Europe,48.1371079,11.5753822
02/05/68,2,5,68,,,703,OK,1968,1968-05-02,Concert,571,Dakar,Sénégal,Afrique,Afrique,14.693425,-17.447938
03/05/68,3,5,68,,,704,OK,1968,1968-05-03,Concert,572,Dakar,Sénégal,Afrique,Afrique,14.693425,-17.447938
04/05/68,4,5,68,,,705,OK,1968,1968-05-04,Concert,573,Niamey 2000,Niger,Afrique,Afrique,13.5167337,2.1495071
05/05/68,5,5,68,,,706,OK,1968,1968-05-05,Concert,574,Niamey 2000,Niger,Afrique,Afrique,13.5167337,2.1495071
06/05/68,6,5,68,,,707,OK,1968,1968-05-06,Concert,575,Ouagadougou,Burkina Faso,Afrique,Afrique,12.368148,-1.527085
07/05/68,7,5,68,Théâtre de Verdure,,708,OK,1968,1968-05-07,Concert,576,Kinshasa,République démocratique du Congo,Afrique,Afrique,-2.9814344,23.8222636
08/05/68,8,5,68,Théâtre de Verdure,,709,OK,1968,1968-05-08,Concert,577,Kinshasa,République démocratique du Congo,Afrique,Afrique,-2.9814344,23.8222636
09/05/68,9,5,68,Théâtre de Verdure,,710,OK,1968,1968-05-09,Concert,578,Kinshasa,République démocratique du Congo,Afrique,Afrique,-2.9814344,23.8222636
10/05/68,10,5,68,,Annulé,711,OK,1968,1968-05-10,Concert annulé,579,Yaounde,Cameroun,Afrique,Afrique,3.8689867,11.5213344
11/05/68,11,5,68,,Annulé,712,OK,1968,1968-05-11,Concert annulé,580,Fort du Lay,France,Europe,France,46.6241468,-1.0833927
03/06/68,3,6,68,,,714,OK,1968,1968-06-03,Concert,581,Fontenay-le-Comte,France,Europe,France,46.4661122,-0.8063735
15/06/68,15,6,68,,,715,OK,1968,1968-06-15,Concert,582,Grenoble,France,Europe,France,45.182151,5.7274722
20/07/68,20,7,68,,,716,OK,1968,1968-07-20,Concert,583,Deauville,France,Europe,France,49.36,0.0752778
28/07/68,28,7,68,"Le Port 
                
            Inauguration","Nicole Croisille, 
          Manitas de Plata",717,OK,1968,1968-07-28,Concert,584,Saint-Raphaël,France,Europe,France,43.4255303,6.7694244
05/08/68,5,8,68,,,718,OK,1968,1968-08-05,Concert,585,Argelès-Gazost,France,Europe,France,43.00511,-0.0997681
09/08/68,9,8,68,Foire aux Vins,"Nicoletta, Moody Blues",719,OK,1968,1968-08-09,Concert,586,Colmar,France,Europe,France,48.0777517,7.3579641
18/08/68,18,8,68,Grand Casino,,720,OK,1968,1968-08-18,Concert,587,Les Sables-d'Olonne,France,Europe,France,46.4990505,-1.7767859
21/08/68,21,8,68,"Casino de la Plage
            Salle des Ambassadeurs",,721,OK,1968,1968-08-21,Concert,588,Arcachon,France,Europe,France,44.6539428,-1.1755714
12/09/68,12,9,68,Fête de  la Bêtise,,723,OK,1968,1968-09-12,Concert,589,Cambrai,France,Europe,France,50.1759602,3.2356613
06/10/68,6,10,68,Dancing Caméléon,Matinée,724,OK,1968,1968-10-06,Concert,590,Condé-sur-l'Escaut,France,Europe,France,50.451747,3.5899406
06/10/68,6,10,68,Dancing La Grange,Soirée,725,OK,1968,1968-10-06,Concert,591,Loison,France,Europe,France,49.3106707,5.6138483
17/10/68,17,10,68,,Johnny tombe dans la fosse d'orchestre et se fracture le pied.,726,OK,1968,1968-10-17,Concert à problèmes,592,Johannesbourg,Afrique du Sud,Afrique,Afrique,-26.205,28.049722
09/11/68,9,11,68,Palais d'Hiver,,727,OK,1968,1968-11-09,Concert,593,Lyon,France,Europe,France,45.7578137,4.8320114
10/11/68,10,11,68,Palais d'Hiver,Matinée,728,OK,1968,1968-11-10,Concert,594,Lyon,France,Europe,France,45.7578137,4.8320114
11/11/68,11,11,68,Palais d'Hiver,,730,OK,1968,1968-11-11,Concert,595,Lyon,France,Europe,France,45.7578137,4.8320114
15/02/69,15,2,69,Cirque d'Amiens,,731,OK,1969,1969-02-15,Concert,596,Amiens,France,Europe,France,49.8941708,2.2956951
18/02/69,18,2,69,,,732,OK,1969,1969-02-18,Concert,597,Tours,France,Europe,France,47.3900474,0.6889268
21/02/69,21,2,69,Le Rio,,733,OK,1969,1969-02-21,Concert,598,Nancy,France,Europe,France,48.6937223,6.1834097
24/02/69,24,2,69,Le Club 58,,734,OK,1969,1969-02-24,Concert,599,Genève,Suisse,Europe,Europe,48.965752,6.581146
03/03/69,3,3,69,Théâtre,,735,OK,1969,1969-03-03,Concert,600,Montauban,France,Europe,France,44.0175835,1.3549991
05/03/69,5,3,69,,,736,OK,1969,1969-03-05,Concert,601,Rodez,France,Europe,France,44.3510012,2.5733006
06/03/69,6,3,69,,,737,OK,1969,1969-03-06,Concert,602,Millau,France,Europe,France,44.1006693,3.0777594
07/03/69,7,3,69,Palais des Sports,Nicoletta,738,OK,1969,1969-03-07,Concert,603,Toulouse,France,Europe,France,43.6044622,1.4442469
14/03/69,14,3,69,Palais des Sports,,756,OK,1969,1969-03-14,Concert,604,Sherbrooke,Canada,Amériques,Amériques,45.403271,-71.889038
15/03/69,15,3,69,Centre Paul Sauve,,757,OK,1969,1969-03-15,Concert,605,Montreal,Canada,Amériques,Amériques,45.4972159,-73.6103642
16/03/69,16,3,69,Le Colisée,,758,OK,1969,1969-03-16,Concert,606,Limoilou,Canada,Amériques,Amériques,46.8262728,-71.233149
05/04/69,5,4,69,,,759,OK,1969,1969-04-05,Concert,607,Conches-en-Ouche,France,Europe,France,48.9621726,0.9411911
06/04/69,6,4,69,,,760,OK,1969,1969-04-06,Concert,608,Challans,France,Europe,France,46.847943,-1.8773787
19/04/69,19,4,69,Palais d'hiver,,761,OK,1969,1969-04-19,Concert,609,Lyon,France,Europe,France,45.7578137,4.8320114
20/04/69,20,4,69,Palais d'hiver,,762,OK,1969,1969-04-20,Concert,610,Lyon,France,Europe,France,45.7578137,4.8320114
15/06/69,15,6,69,Chapiteau,Les Parisiennes,764,OK,1969,1969-06-15,Concert,611,Craon,France,Europe,France,47.84831,-0.9518383
06/07/69,6,7,69,Chapiteau,,765,OK,1969,1969-07-06,Concert,612,Le Havre,France,Europe,France,49.4938975,0.1079732
08/07/69,8,7,69,Chapiteau,,766,OK,1969,1969-07-08,Concert,613,Saint-Omer,France,Europe,France,50.752171,2.2540674
15/07/69,15,7,69,Chapiteau,,767,OK,1969,1969-07-15,Concert,614,Le Tréport,France,Europe,France,50.060286,1.3708325
16/07/69,16,7,69,Chapiteau,,768,OK,1969,1969-07-16,Concert,615,Berck,France,Europe,France,50.4052576,1.5711617
01/08/69,1,8,69,Théatre du Gymnase,,769,OK,1969,1969-08-01,Concert,616,Marseille,France,Europe,France,43.2961743,5.3699525
08/08/69,8,8,69,,,770,OK,1969,1969-08-08,Concert,617,L'Isle-sur-la-Sorgue,France,Europe,France,43.9185354,5.0515385
09/08/69,9,8,69,Le Port,"Hommage à 
                Michel 
                Cogoni",771,OK,1969,1969-08-09,Concert,618,Port Saint-Ange,France,Europe,France,42.80101975,3.0378403079715
10/08/69,10,8,69,Foire aux vins : Parc des Expos,,772,OK,1969,1969-08-10,Concert,619,Colmar,France,Europe,France,48.0777517,7.3579641
11/08/69,11,8,69,Fête de la Bière,,773,OK,1969,1969-08-11,Concert,620,Boulogne-sur-Mer,France,Europe,France,50.7259985,1.6118771
12/08/69,12,8,69,,,774,OK,1969,1969-08-12,Concert,621,Le Tréport,France,Europe,France,50.060286,1.3708325
14/08/69,14,8,69,Chapiteau,,775,OK,1969,1969-08-14,Concert,622,Quillan,France,Europe,France,42.8752151,2.1838307
15/08/69,15,8,69,,,776,OK,1969,1969-08-15,Concert,623,Montpellier,France,Europe,France,43.6112422,3.8767337
16/08/69,16,8,69,,,777,OK,1969,1969-08-16,Concert,624,Île de Ré,France,Europe,France,46.20055875,-1.40032882996978
17/08/69,17,8,69,,,778,OK,1969,1969-08-17,Concert,625,Île d'Oléron,France,Europe,France,45.9235471,-1.28781075155077
18/08/69,18,8,69,,,779,OK,1969,1969-08-18,Concert,626,La Facture,France,Europe,France,47.9571159,-0.7321104
19/08/69,19,8,69,,,780,OK,1969,1969-08-19,Concert,627,Montendre,France,Europe,France,45.285404,-0.4095433
20/08/69,20,8,69,,,781,OK,1969,1969-08-20,Concert,628,Polignac,France,Europe,France,45.0687582,3.8601797
22/08/69,22,8,69,,,782,OK,1969,1969-08-22,Concert,629,Biarritz,France,Europe,France,43.4815899,-1.556116
23/08/69,23,8,69,Jaï Laï,,783,OK,1969,1969-08-23,Concert,630,Saint-Jean-de-Luz,France,Europe,France,43.3870763,-1.6635695
24/08/69,24,8,69,,,784,OK,1969,1969-08-24,Concert,631,Soorts-Hossegor,France,Europe,France,43.6584045,-1.4262382
25/08/69,25,8,69,,,785,OK,1969,1969-08-25,Concert,632,Royan,France,Europe,France,45.6245332,-1.0287636
27/08/69,27,8,69,,,786,OK,1969,1969-08-27,Concert,633,Bagnères-de-Bigorre,France,Europe,France,43.0658212,0.1530914
28/08/69,28,8,69,,,787,OK,1969,1969-08-28,Concert,634,Canet-Plage,France,Europe,France,42.6922495,3.0328251
30/08/69,30,8,69,,,788,OK,1969,1969-08-30,Concert,635,Deauville,France,Europe,France,49.36,0.0752778
31/08/69,31,8,69,Fête de la Bière,,789,OK,1969,1969-08-31,Concert,636,Maubeuge,France,Europe,France,50.2785567,3.9743784
07/09/69,7,9,69,,,790,OK,1969,1969-09-07,Concert,637,Thoissey,France,Europe,France,46.1721833,4.8015014
13/09/69,13,9,69,,,791,OK,1969,1969-09-13,Concert,638,Saint-André-des-Eaux,France,Europe,France,47.3160596,-2.3099292
15/09/69,15,9,69,Fête de la Bêtise,,792,OK,1969,1969-09-15,Concert,639,Cambrai,France,Europe,France,50.1759602,3.2356613
20/09/69,20,9,69,Festival Pop Palazzo del Cinema,Sylvie Vartan,793,OK,1969,1969-09-20,Concert,640,Venase,Italie,Europe,Europe,45.6978087,10.3284882
21/09/69,21,9,69,Palais des Sports,"Carlos, Jean Jacques Debout, Sylvie Vartan",794,OK,1969,1969-09-21,Concert,641,Besançon,France,Europe,France,47.237953,6.0243246
27/09/69,27,9,69,,,795,OK,1969,1969-09-27,Concert,642,Margaux,France,Europe,France,45.0405695,-0.6796105
28/09/69,28,9,69,,,796,OK,1969,1969-09-28,Concert,643,Pierric,France,Europe,France,47.6869847,-1.7374367
27/12/69,27,12,69,,,797,OK,1969,1969-12-27,Concert,644,Marseille,France,Europe,France,43.2961743,5.3699525
05/02/70,5,2,70,Théatre Français,,798,OK,1970,1970-02-05,Concert,645,Bordeaux,France,Europe,France,44.841225,-0.5800364
06/02/70,6,2,70,Théatre Français,,799,OK,1970,1970-02-06,Concert,646,Bordeaux,France,Europe,France,44.841225,-0.5800364
07/02/70,7,2,70,Palais des Sports,,800,OK,1970,1970-02-07,Concert,647,Toulouse,France,Europe,France,43.6044622,1.4442469
08/02/70,8,2,70,Marché de la Gare,,801,OK,1970,1970-02-08,Concert,648,Montauban,France,Europe,France,44.0175835,1.3549991
09/02/70,9,2,70,,,802,OK,1970,1970-02-09,Concert,649,Montpellier,France,Europe,France,43.6112422,3.8767337
11/02/70,11,2,70,,,803,OK,1970,1970-02-11,Concert,650,Montélimar,France,Europe,France,44.5579391,4.750318
12/02/70,12,2,70,,,804,OK,1970,1970-02-12,Concert,651,Clermont-Ferrand,France,Europe,France,45.7774551,3.0819427
13/02/70,13,2,70,,,805,OK,1970,1970-02-13,Concert,652,Roanne,France,Europe,France,46.0363902,4.0738682
14/02/70,14,2,70,,,806,OK,1970,1970-02-14,Concert,653,Bourg-de-Thizy,France,Europe,France,46.0346399,4.2998475
15/02/70,15,2,70,,,807,OK,1970,1970-02-15,Concert,654,Villerupt,France,Europe,France,49.468468,5.9326783
16/02/70,16,2,70,Forum,,808,OK,1970,1970-02-16,Concert,655,Liège,Belgique,Europe,Europe,50.6451381,5.5734203
17/02/70,17,2,70,,,809,OK,1970,1970-02-17,Concert,656,Charleville-Mézières,France,Europe,France,49.7599365,4.7186932
18/02/70,18,2,70,Parc des Expositions,"John Mike Harlow,Wallace 
            Collection",810,OK,1970,1970-02-18,Concert,657,Nancy,France,Europe,France,48.6937223,6.1834097
19/02/70,19,2,70,Parc des Expositions,,811,OK,1970,1970-02-19,Concert,658,Strasbourg,France,Europe,France,48.584614,7.7507127
20/02/70,20,2,70,,Annulé suite accident de voiture,812,OK,1970,1970-02-20,Concert annulé,659,Besançon,France,Europe,France,47.237953,6.0243246
06/03/70,6,3,70,Foire Commerciale,,813,OK,1970,1970-03-06,Concert,660,Lille,France,Europe,France,50.6305089,3.0706414
07/03/70,7,3,70,,,814,OK,1970,1970-03-07,Concert,661,Amiens,France,Europe,France,49.8941708,2.2956951
08/03/70,8,3,70,,Matinée,815,OK,1970,1970-03-08,Concert,662,Conche,France,Europe,France,45.558908,3.0125821
09/03/70,9,3,70,,,816,OK,1970,1970-03-09,Concert,663,Le Mans,France,Europe,France,48.0078605,0.1996565
10/03/70,10,3,70,,,817,OK,1970,1970-03-10,Concert,664,Niort,France,Europe,France,46.3239455,-0.4645212
11/03/70,11,3,70,Champs de Mars,,818,OK,1970,1970-03-11,Concert,665,Nantes,France,Europe,France,47.2186371,-1.5541362
12/03/70,12,3,70,Palais des Sports,,819,OK,1970,1970-03-12,Concert,666,Orléans,France,Europe,France,47.9027336,1.9086066
13/03/70,13,3,70,Chapiteau,,820,OK,1970,1970-03-13,Concert,667,Froissy,France,Europe,France,49.5652151,2.2222488
14/03/70,14,3,70,,Matinée,821,OK,1970,1970-03-14,Concert,668,Sens,France,Europe,France,48.1978559,3.282606
14/03/70,14,3,70,,Soirée,822,OK,1970,1970-03-14,Concert,669,Alligny-Cosne,France,Europe,France,47.4538908,3.0609141
15/03/70,15,3,70,,,823,OK,1970,1970-03-15,Concert,670,Armentières,France,Europe,France,50.6886109,2.8839607
21/03/70,21,3,70,"Golf Drouot
          Gala pour le Fan Club",Vignon et Moustique,824,OK,1970,1970-03-21,Concert,671,Paris,France,Europe,France,48.8566101,2.3514992
04/07/70,4,7,70,,,825,OK,1970,1970-07-04,Concert,672,Margaux,France,Europe,France,45.0405695,-0.6796105
06/07/70,6,7,70,Chapiteau,,826,OK,1970,1970-07-06,Concert,673,Le Havre,France,Europe,France,49.4938975,0.1079732
11/07/70,11,7,70,Chapiteau,,827,OK,1970,1970-07-11,Concert,674,Galgon,France,Europe,France,44.9907477,-0.2723327
16/07/70,16,7,70,,,831,OK,1970,1970-07-16,Concert,675,Berck,France,Europe,France,50.4052576,1.5711617
17/07/70,17,7,70,,,832,OK,1970,1970-07-17,Concert,676,Laon,France,Europe,France,49.564665,3.620686
18/07/70,18,7,70,,,833,OK,1970,1970-07-18,Concert,677,Bar-le-Duc,France,Europe,France,48.7736785,5.1621546
19/07/70,19,7,70,,,834,OK,1970,1970-07-19,Concert,678,Palermo,Italie,Europe,Europe,38.11127,13.3534422
21/07/70,21,7,70,"Place des Crêtes 
            Chapiteau",,835,OK,1970,1970-07-21,Concert,679,Thonon-les-Bains,France,Europe,France,46.3731303,6.4779448
22/07/70,22,7,70,,,836,OK,1970,1970-07-22,Concert,680,Annecy,France,Europe,France,45.908795,6.1198672
23/07/70,23,7,70,Les arènes,,837,OK,1970,1970-07-23,Concert,681,Arles,France,Europe,France,43.6776223,4.6309653
24/07/70,24,7,70,Les arènes,,838,OK,1970,1970-07-24,Concert,682,Béziers,France,Europe,France,43.341279,3.2166203
25/07/70,25,7,70,,,839,OK,1970,1970-07-25,Concert,683,Salou,Espagne,Europe,Europe,41.0768193,1.1440411
27/07/70,27,7,70,,,840,OK,1970,1970-07-27,Concert,684,Sainte-Maxime,France,Europe,France,43.30871,6.637714
28/07/70,28,7,70,,,841,OK,1970,1970-07-28,Concert,685,Le Lavandou,France,Europe,France,43.1383795,6.3701286
31/07/70,31,7,70,,,842,OK,1970,1970-07-31,Concert,686,Valbonne,France,Europe,France,43.6413793,7.0085848
05/08/70,5,8,70,Carrefour des Chansons,David Alexandre Winter,843,OK,1970,1970-08-05,Concert,687,Orange,France,Europe,France,44.1371311,4.8078783
07/08/70,7,8,70,Le Port,,844,OK,1970,1970-08-07,Concert,688,Port Saint-Ange,France,Europe,France,42.80101975,3.0378403079715
16/08/70,16,8,70,Foire aux Vins,Martin Circus,845,OK,1970,1970-08-16,Concert,689,Colmar,France,Europe,France,48.0777517,7.3579641
25/08/70,25,8,70,Salle Vallier,,846,OK,1970,1970-08-25,Concert,690,Marseille,France,Europe,France,43.2961743,5.3699525
04/09/70,4,9,70,,,847,OK,1970,1970-09-04,Concert,691,Cambrai,France,Europe,France,50.1759602,3.2356613
21/11/70,21,11,70,Le Colisé,Matinée,852,OK,1970,1970-11-21,Concert,692,Fort-de-France,France,Europe,France,14.6027962,-61.0676724
22/11/70,22,11,70,Le Colisé,Matinée,854,OK,1970,1970-11-22,Concert,693,Fort-de-France,France,Europe,France,14.6027962,-61.0676724
23/11/70,23,11,70,Le Colisé,,856,OK,1970,1970-11-23,Concert,694,Fort-de-France,France,Europe,France,14.6027962,-61.0676724
24/11/70,24,11,70,Ciné Renaissance,Matinée,857,OK,1970,1970-11-24,Concert,695,Pointe-à-Pitre,France,Europe,France,16.2408636,-61.5334077
25/11/70,25,11,70,Ciné Renaissance,Soirée,858,OK,1970,1970-11-25,Concert,696,Pointe-à-Pitre,France,Europe,France,16.2408636,-61.5334077
27/11/70,27,11,70,Palais des Sports,,860,OK,1970,1970-11-27,Concert,697,Saint-Georges,Canada,Amériques,Amériques,46.122987,-70.671959
28/11/70,28,11,70,Le Colisée,,861,OK,1970,1970-11-28,Concert,698,Trois-Rivières,Canada,Amériques,Amériques,46.332706,-72.556458
29/11/70,29,11,70,L'Aréna,,862,OK,1970,1970-11-29,Concert,699,Saint-Jérôme,Canada,Amériques,Amériques,45.775426,-74.013176
01/12/70,1,12,70,L'Auditorium Dufour,,863,OK,1970,1970-12-01,Concert,700,Chicoutimi,Canada,Amériques,Amériques,48.4286352,-71.0637121
03/12/70,3,12,70,"Théâtre 
            Capitol",,864,OK,1970,1970-12-03,Concert,701,Quebec,Canada,Amériques,Amériques,52.4760892,-71.8258668
04/12/70,4,12,70,"Théâtre 
            Capitol",,865,OK,1970,1970-12-04,Concert,702,Quebec,Canada,Amériques,Amériques,52.4760892,-71.8258668
05/12/70,5,12,70,Centre Paul Sauve,,866,OK,1970,1970-12-05,Concert,703,Montreal,Canada,Amériques,Amériques,45.4972159,-73.6103642
12/12/70,12,12,70,Parking de l'usine Ricard,Promo Pubs Ricard,867,OK,1970,1970-12-12,Concert,704,Lormont,France,Europe,France,44.8791708,-0.5216683
17/12/70,17,12,70,,,868,OK,1970,1970-12-17,Concert,705,Dijon,France,Europe,France,47.3215806,5.0414701
07/03/71,7,3,71,Forest National,,869,OK,1971,1971-03-07,Concert,706,Bruxelles,Belgique,Europe,Europe,50.8465573,4.351697
01/07/71,1,7,71,Patinoire des Vernets,,871,OK,1971,1971-07-01,Concert,707,Genève,Suisse,Europe,Europe,48.965752,6.581146
02/07/71,2,7,71,Patinoire des Vernets,,872,OK,1971,1971-07-02,Concert,708,Genève,Suisse,Europe,Europe,48.965752,6.581146
09/07/71,9,7,71,,,873,OK,1971,1971-07-09,Concert,709,Colomiers,France,Europe,France,43.6121001,1.3282149
13/07/71,13,7,71,Kermesse de la Bière,,874,OK,1971,1971-07-13,Concert,710,Maubeuge,France,Europe,France,50.2785567,3.9743784
24/07/71,24,7,71,,,875,OK,1971,1971-07-24,Concert,711,Fain-lès-Moutiers,France,Europe,France,47.5831,4.2107
01/08/71,1,8,71,,,877,OK,1971,1971-08-01,Concert,712,Conches-en-Ouche,France,Europe,France,48.9621726,0.9411911
14/08/71,14,8,71,Foire aux vins,,878,OK,1971,1971-08-14,Concert,713,Colmar,France,Europe,France,48.0777517,7.3579641
17/08/71,17,8,71,Arènes,Retransmis sur Europe1,879,OK,1971,1971-08-17,Concert,714,Palavas-les-Flots,France,Europe,France,43.5278137,3.9315347
21/08/71,21,8,71,Casino,,880,OK,1971,1971-08-21,Concert,715,Deauville,France,Europe,France,49.36,0.0752778
22/08/71,22,8,71,Plein air,Cirque Jean Sunny,881,OK,1971,1971-08-22,Concert,716,Arçon,France,Europe,France,46.9469436,6.3792107
29/08/71,29,8,71,Cirque Jean Sunny,"Matinée 
                15h30",882,OK,1971,1971-08-29,Concert,717,Laviéville,France,Europe,France,49.9908946,2.5753485
31/08/71,31,8,71,,,883,OK,1971,1971-08-31,Concert,718,Arras,France,Europe,France,50.291048,2.7772211
04/09/71,4,9,71,Parking du Géric (châpiteau),Inauguration,884,OK,1971,1971-09-04,Concert,719,Thionville,France,Europe,France,49.3591614,6.1529769
05/09/71,5,9,71,Parking du Géric (châpiteau),Matinée,885,OK,1971,1971-09-05,Concert,720,Thionville,France,Europe,France,49.3591614,6.1529769
15/09/71,15,9,71,,,887,OK,1971,1971-09-15,Concert,721,Cambrai,France,Europe,France,50.1759602,3.2356613
18/09/71,18,9,71,,,888,OK,1971,1971-09-18,Concert,722,Savigné-l'Évêque,France,Europe,France,48.0773296,0.2962126
05/11/71,5,11,71,Palais des Sports,,895,OK,1971,1971-11-05,Concert,723,Lyon,France,Europe,France,45.7578137,4.8320114
06/11/71,6,11,71,Palais des Sports,,896,OK,1971,1971-11-06,Concert,724,Lyon,France,Europe,France,45.7578137,4.8320114
12/11/71,12,11,71,Salle Vallier,,897,OK,1971,1971-11-12,Concert,725,Marseille,France,Europe,France,43.2961743,5.3699525
13/11/71,13,11,71,Salle Vallier,,898,OK,1971,1971-11-13,Concert,726,Marseille,France,Europe,France,43.2961743,5.3699525
19/11/71,19,11,71,Palais des Sports,,899,OK,1971,1971-11-19,Concert,727,Besançon,France,Europe,France,47.237953,6.0243246
20/11/71,20,11,71,Palais des Congrès,Spectacle interrompu Nanette Workmann ayant reçu une bouteille sur la tête,900,OK,1971,1971-11-20,Concert à problèmes,728,Dijon,France,Europe,France,47.3215806,5.0414701
15/12/71,15,12,71,Forum,,901,OK,1971,1971-12-15,Concert,729,Liège,Belgique,Europe,Europe,50.6451381,5.5734203
17/12/71,17,12,71,Forest National,,902,OK,1971,1971-12-17,Concert,730,Bruxelles,Belgique,Europe,Europe,50.8465573,4.351697
18/12/71,18,12,71,Forest National,,903,OK,1971,1971-12-18,Concert,731,Bruxelles,Belgique,Europe,Europe,50.8465573,4.351697
25/02/1972,25,2,72,Cinéma REX,,904,OK,1972,1972-02-25,Concert,732,Nouméa,France,Europe,France,-22.2745264,166.442419
26/02/1972,26,2,72,Cinéma REX,,905,OK,1972,1972-02-26,Concert,733,Nouméa,France,Europe,France,-22.2745264,166.442419
27/02/1972,27,2,72,Cinéma REX,,906,OK,1972,1972-02-27,Concert,734,Nouméa,France,Europe,France,-22.2745264,166.442419
01/03/1972,1,3,72,Salle Lopel,,907,OK,1972,1972-03-01,Concert,735,Tahiti,France,Europe,France,-17.68749305,-149.44507813202
02/03/1972,2,3,72,Salle Lopel,,908,OK,1972,1972-03-02,Concert,736,Tahiti,France,Europe,France,-17.68749305,-149.44507813202
03/03/1972,3,3,72,Salle Lopel,,909,OK,1972,1972-03-03,Concert,737,Tahiti,France,Europe,France,-17.68749305,-149.44507813202
04/03/1972,4,3,72,Salle Lopel,,910,OK,1972,1972-03-04,Concert,738,Tahiti,France,Europe,France,-17.68749305,-149.44507813202
05/03/1972,5,3,72,Fautaua Arena,,911,OK,1972,1972-03-05,Concert,739,Tahiti,France,Europe,France,-17.68749305,-149.44507813202
06/03/1972,6,3,72,Fautaua Arena,,912,OK,1972,1972-03-06,Concert,740,Tahiti,France,Europe,France,-17.68749305,-149.44507813202
07/03/1972,7,3,72,Fautaua Arena,,913,OK,1972,1972-03-07,Concert,741,Tahiti,France,Europe,France,-17.68749305,-149.44507813202
08/03/1972,8,3,72,Fautaua Arena,,914,OK,1972,1972-03-08,Concert,742,Tahiti,France,Europe,France,-17.68749305,-149.44507813202
13/03/1972,13,3,72,Olympia,"Gala de bienfaisance 
          pour la LICRA",915,OK,1972,1972-03-13,Concert,743,Paris,France,Europe,France,48.8566101,2.3514992
18/03/1972,18,3,72,,,916,OK,1972,1972-03-18,Concert,744,Aix-les-Bains,France,Europe,France,45.6886292,5.9146362
11/05/1972,11,5,72,,,917,OK,1972,1972-05-11,Concert,745,Vigneux-Hocquet,France,Europe,France,49.739101,3.9910759
17/06/1972,17,6,72,Chapiteau,,918,OK,1972,1972-06-17,Concert,746,Chantilly,France,Europe,France,49.1939579,2.4632567
18/06/1972,18,6,72,Chapiteau,"Annulé suite à la 
          catastrophe de Vierzy",919,OK,1972,1972-06-18,Concert annulé,747,Soissons,France,Europe,France,49.3816667,3.3236111
19/06/1972,19,6,72,Chapiteau,"Annulé suite à la 
          catastrophe de Vierzy",920,OK,1972,1972-06-19,Concert annulé,748,Laon,France,Europe,France,49.564665,3.620686
20/06/1972,20,6,72,Chapiteau,,921,OK,1972,1972-06-20,Concert,749,Reims,France,Europe,France,49.2577886,4.031926
21/06/1972,21,6,72,Chapiteau,,922,OK,1972,1972-06-21,Concert,750,Vitry-le-François,France,Europe,France,48.7262225,4.5851622
22/06/1972,22,6,72,Chapiteau,,923,OK,1972,1972-06-22,Concert,751,Troyes,France,Europe,France,48.2971626,4.0746257
23/06/1972,23,6,72,Chapiteau,,924,OK,1972,1972-06-23,Concert,752,Saint-Dizier,France,Europe,France,48.6375625,4.9475536
24/06/1972,24,6,72,Chapiteau,,925,OK,1972,1972-06-24,Concert,753,Metz,France,Europe,France,49.1196964,6.1763552
25/06/1972,25,6,72,"Parc des Expositions 
            Chapiteau",,926,OK,1972,1972-06-25,Concert,754,Nancy,France,Europe,France,48.6937223,6.1834097
26/06/1972,26,6,72,Chapiteau,,927,OK,1972,1972-06-26,Concert,755,Saint-Dié-des-Vosges,France,Europe,France,48.2873153,6.9477708
27/06/1972,27,6,72,Chapiteau,,928,OK,1972,1972-06-27,Concert,756,Épinal,France,Europe,France,48.1745653,6.449823
28/06/1972,28,6,72,Chapiteau,,929,OK,1972,1972-06-28,Concert,757,Vesoul,France,Europe,France,47.6236088,6.1566367
29/06/1972,29,6,72,Chapiteau,,930,OK,1972,1972-06-29,Concert,758,Audincourt,France,Europe,France,47.4819786,6.8413684
30/06/1972,30,6,72,Chapiteau,,931,OK,1972,1972-06-30,Concert,759,Besançon,France,Europe,France,47.237953,6.0243246
01/07/1972,1,7,72,Chapiteau,,932,OK,1972,1972-07-01,Concert,760,Dole,France,Europe,France,47.0921047,5.4925463
02/07/1972,2,7,72,Chapiteau,,933,OK,1972,1972-07-02,Concert,761,Lons-le-Saunier,France,Europe,France,46.6739021,5.5586167
03/07/1972,3,7,72,Chapiteau,,934,OK,1972,1972-07-03,Concert,762,Mâcon,France,Europe,France,46.3036683,4.8322266
04/07/1972,4,7,72,Chapiteau,,935,OK,1972,1972-07-04,Concert,763,Bourg-en-Bresse,France,Europe,France,46.2051192,5.2250324
05/07/1972,5,7,72,Chapiteau,,936,OK,1972,1972-07-05,Concert,764,Oyonnax,France,Europe,France,46.2575174,5.6556181
06/07/1972,6,7,72,Chapiteau,,937,OK,1972,1972-07-06,Concert,765,Saint-Julien-en-Genevois,France,Europe,France,46.1444789,6.0812467
07/07/1972,7,7,72,Chapiteau,,938,OK,1972,1972-07-07,Concert,766,Annecy,France,Europe,France,45.908795,6.1198672
08/07/1972,8,7,72,Chapiteau,,939,OK,1972,1972-07-08,Concert,767,Grenoble,France,Europe,France,45.182151,5.7274722
09/07/1972,9,7,72,Chapiteau,,940,OK,1972,1972-07-09,Concert,768,Valence,France,Europe,France,44.9332277,4.8920811
10/07/1972,10,7,72,Chapiteau,,941,OK,1972,1972-07-10,Concert,769,Montélimar,France,Europe,France,44.5579391,4.750318
11/07/1972,11,7,72,Chapiteau,,942,OK,1972,1972-07-11,Concert,770,Orange,France,Europe,France,44.1371311,4.8078783
12/07/1972,12,7,72,Chapiteau,,943,OK,1972,1972-07-12,Concert,771,Cavaillon,France,Europe,France,43.8322775,5.0393165
13/07/1972,13,7,72,Chapiteau,,944,OK,1972,1972-07-13,Concert,772,Aix-en-Provence,France,Europe,France,43.5298424,5.4474738
15/07/1972,15,7,72,Chapiteau,,945,OK,1972,1972-07-15,Concert,773,Draguignan,France,Europe,France,43.5374662,6.4627333
16/07/1972,16,7,72,Chapiteau,,946,OK,1972,1972-07-16,Concert,774,Nice,France,Europe,France,43.7009358,7.2683912
17/07/1972,17,7,72,Chapiteau,,947,OK,1972,1972-07-17,Concert,775,Nice,France,Europe,France,43.7009358,7.2683912
18/07/1972,18,7,72,Chapiteau,,948,OK,1972,1972-07-18,Concert,776,Cabris,France,Europe,France,43.6562749,6.8755075
19/07/1972,19,7,72,Chapiteau,,949,OK,1972,1972-07-19,Concert,777,Saint-Raphaël,France,Europe,France,43.4255303,6.7694244
20/07/1972,20,7,72,Chapiteau,,950,OK,1972,1972-07-20,Concert,778,Saint-Raphaël,France,Europe,France,43.4255303,6.7694244
21/07/1972,21,7,72,Chapiteau,,951,OK,1972,1972-07-21,Concert,779,Toulon,France,Europe,France,43.1257311,5.9304919
22/07/1972,22,7,72,Chapiteau,,952,OK,1972,1972-07-22,Concert,780,Bandol,France,Europe,France,43.1357717,5.7523648
23/07/1972,23,7,72,Chapiteau,,953,OK,1972,1972-07-23,Concert,781,Martigues,France,Europe,France,43.4057279,5.0548176
24/07/1972,24,7,72,Chapiteau,,954,OK,1972,1972-07-24,Concert,782,Nîmes,France,Europe,France,43.8374249,4.3600687
25/07/1972,25,7,72,Chapiteau,,955,OK,1972,1972-07-25,Concert,783,Béziers,France,Europe,France,43.341279,3.2166203
26/07/1972,26,7,72,Chapiteau,,956,OK,1972,1972-07-26,Concert,784,Le Barcarès,France,Europe,France,42.7946794,3.0335243
27/07/1972,27,7,72,Chapiteau,,957,OK,1972,1972-07-27,Concert,785,Narbonne,France,Europe,France,43.182806,3.0043128
29/07/1972,29,7,72,Chapiteau,,958,OK,1972,1972-07-29,Concert,786,Saint-Gaudens,France,Europe,France,43.1077682,0.7247218
30/07/1972,30,7,72,Chapiteau,,959,OK,1972,1972-07-30,Concert,787,Tarbes,France,Europe,France,43.232858,0.0781021
31/07/1972,31,7,72,Chapiteau,,960,OK,1972,1972-07-31,Concert,788,Pau,France,Europe,France,43.2957547,-0.3685668
02/08/1972,2,8,72,Chapiteau,,961,OK,1972,1972-08-02,Concert,789,Biarritz,France,Europe,France,43.4815899,-1.556116
03/08/1972,3,8,72,Chapiteau,,962,OK,1972,1972-08-03,Concert,790,Saint-Jean-de-Luz,France,Europe,France,43.3870763,-1.6635695
04/08/1972,4,8,72,Chapiteau,,963,OK,1972,1972-08-04,Concert,791,Mont-de-Marsan,France,Europe,France,43.8911318,-0.500972
05/08/1972,5,8,72,Chapiteau,,964,OK,1972,1972-08-05,Concert,792,La Teste-de-Buch,France,Europe,France,44.6227148,-1.1753424
06/08/1972,6,8,72,Chapiteau,,965,OK,1972,1972-08-06,Concert,793,Lacanau,France,Europe,France,44.9776088,-1.0784851
07/08/1972,7,8,72,Chapiteau,,966,OK,1972,1972-08-07,Concert,794,Soulac-sur-Mer,France,Europe,France,45.513149,-1.1228789
08/08/1972,8,8,72,Chapiteau,,967,OK,1972,1972-08-08,Concert,795,Royan,France,Europe,France,45.6245332,-1.0287636
09/08/1972,9,8,72,Chapiteau,,968,OK,1972,1972-08-09,Concert,796,La Tremblade,France,Europe,France,45.7687967,-1.1420694
10/08/1972,10,8,72,Chapiteau,,969,OK,1972,1972-08-10,Concert,797,Le Château-d'Oléron,France,Europe,France,45.8866143,-1.1953301
11/08/1972,11,8,72,Chapiteau,,970,OK,1972,1972-08-11,Concert,798,La Rochelle,France,Europe,France,46.1591126,-1.1520434
12/08/1972,12,8,72,Chapiteau,,971,OK,1972,1972-08-12,Concert,799,L'Île de Ré,France,Europe,France,47.0327764,2.0379089
16/08/1972,16,8,72,Chapiteau,,972,OK,1972,1972-08-16,Concert,800,Saint-Jean-de-Monts,France,Europe,France,46.7936111,-2.0588889
17/08/1972,17,8,72,Chapiteau,,973,OK,1972,1972-08-17,Concert,801,Noirmoutier-en-l'Île,France,Europe,France,47.000089,-2.2441449
18/08/1972,18,8,72,Chapiteau,,974,OK,1972,1972-08-18,Concert,802,Pornic,France,Europe,France,47.1152695,-2.1040102
19/08/1972,19,8,72,Chapiteau,,975,OK,1972,1972-08-19,Concert,803,La Baule-Escoublac,France,Europe,France,47.2843726,-2.3951595
20/08/1972,20,8,72,Chapiteau,,976,OK,1972,1972-08-20,Concert,804,Redon,France,Europe,France,47.6571027,-2.0824145
21/08/1972,21,8,72,Chapiteau,,977,OK,1972,1972-08-21,Concert,805,Rennes,France,Europe,France,48.1113387,-1.6800198
22/08/1972,22,8,72,Chapiteau,,978,OK,1972,1972-08-22,Concert,806,Saint-Brieuc,France,Europe,France,48.5141594,-2.7602707
23/08/1972,23,8,72,Chapiteau,,979,OK,1972,1972-08-23,Concert,807,Dinard,France,Europe,France,48.6251435,-2.0584211
24/08/1972,24,8,72,Chapiteau,,980,OK,1972,1972-08-24,Concert,808,Cons-la-Grandville,France,Europe,France,49.4849815,5.7019992
25/08/1972,25,8,72,Chapiteau,,981,OK,1972,1972-08-25,Concert,809,Saint-Lô,France,Europe,France,49.1157004,-1.0906637
26/08/1972,26,8,72,Chapiteau,,982,OK,1972,1972-08-26,Concert,810,Caen,France,Europe,France,49.1828008,-0.3690815
27/08/1972,27,8,72,Chapiteau,,983,OK,1972,1972-08-27,Concert,811,Lisieux,France,Europe,France,49.1460831,0.2255168
28/08/1972,28,8,72,Chapiteau,,984,OK,1972,1972-08-28,Concert,812,Argentan,France,Europe,France,48.7428859,-0.0223695
29/08/1972,29,8,72,Chapiteau,,985,OK,1972,1972-08-29,Concert,813,Alençon,France,Europe,France,48.4312059,0.0911374
30/08/1972,30,8,72,Chapiteau,,986,OK,1972,1972-08-30,Concert,814,Le Mans,France,Europe,France,48.0078605,0.1996565
31/08/1972,31,8,72,Chapiteau,,987,OK,1972,1972-08-31,Concert,815,Angers,France,Europe,France,47.4739884,-0.5515588
01/09/1972,1,9,72,Chapiteau,,988,OK,1972,1972-09-01,Concert,816,Saumur,France,Europe,France,47.2597046,-0.0778427
02/09/1972,2,9,72,Chapiteau,,989,OK,1972,1972-09-02,Concert,817,Tours,France,Europe,France,47.3900474,0.6889268
03/09/1972,3,9,72,Chapiteau,,990,OK,1972,1972-09-03,Concert,818,Châtellerault,France,Europe,France,46.8180047,0.545812
04/09/1972,4,9,72,Chapiteau,,991,OK,1972,1972-09-04,Concert,819,Châteauroux,France,Europe,France,46.8047,1.6957099
06/09/1972,6,9,72,Chapiteau,,992,OK,1972,1972-09-06,Concert,820,Bordeaux,France,Europe,France,44.841225,-0.5800364
07/09/1972,7,9,72,Chapiteau,,993,OK,1972,1972-09-07,Concert,821,Bordeaux,France,Europe,France,44.841225,-0.5800364
08/09/1972,8,9,72,Chapiteau,,994,OK,1972,1972-09-08,Concert,822,Bergerac,France,Europe,France,44.8534568,0.487531
